[
  {
    "lat": 12.96018,
    "lon": 77.51398,
    "name": "12th Block Nagarabhavi",
    "id": "21629"
  },
  {
    "lat": 12.96076,
    "lon": 77.51351,
    "name": "12th Block Nagarabhavi",
    "id": "21630"
  },
  {
    "lat": 12.91637,
    "lon": 77.63472,
    "name": "14th Main HSR Layout",
    "id": "20568"
  },
  {
    "lat": 12.92328,
    "lon": 77.58898,
    "name": "18th Main Jayanagara",
    "id": "22890"
  },
  {
    "lat": 12.91593,
    "lon": 77.65176,
    "name": "19th Main 13th Cross HSR Layout",
    "id": "22891"
  },
  {
    "lat": 12.91582,
    "lon": 77.65175,
    "name": "19th Main 13th Cross HSR Layout",
    "id": "24300"
  },
  {
    "lat": 12.89854,
    "lon": 77.61543,
    "name": "1st Main Kodichikkanahalli",
    "id": "29393"
  },
  {
    "lat": 12.89847,
    "lon": 77.6155,
    "name": "1st Main Kodichikkanahalli",
    "id": "35599"
  },
  {
    "lat": 12.95302,
    "lon": 77.52026,
    "name": "1st Stage 3rd Block Nagarabhavi (Nayandahalli)",
    "id": "22896"
  },
  {
    "lat": 12.95286,
    "lon": 77.52017,
    "name": "1st Stage 3rd Block Nagarabhavi (Summanahalli)",
    "id": "22897"
  },
  {
    "lat": 12.9695,
    "lon": 77.50927,
    "name": "2nd Stage 9th Block Nagarabhavi",
    "id": "35595"
  },
  {
    "lat": 12.9318,
    "lon": 77.58393,
    "name": "3rd Block Jayanagara",
    "id": "21446"
  },
  {
    "lat": 12.93349,
    "lon": 77.58396,
    "name": "3rd Block Jayanagara",
    "id": "21447"
  },
  {
    "lat": 13.10426,
    "lon": 77.57,
    "name": "4th Phase Yelahanka New Town Iyengar Bakery",
    "id": "29407"
  },
  {
    "lat": 13.03585,
    "lon": 77.63142,
    "name": "5th Block HBR Layout",
    "id": "29409"
  },
  {
    "lat": 13.04622,
    "lon": 77.50755,
    "name": "8th Mile Dasarahalli",
    "id": "20593"
  },
  {
    "lat": 13.04541,
    "lon": 77.50795,
    "name": "8th Mile Dasarahalli",
    "id": "20594"
  },
  {
    "lat": 13.0451,
    "lon": 77.50748,
    "name": "8th Mile Dasarahalli",
    "id": "35570"
  },
  {
    "lat": 13.04555,
    "lon": 77.50555,
    "name": "8th Mile Dasarahalli",
    "id": "35571"
  },
  {
    "lat": 13.04543,
    "lon": 77.50547,
    "name": "8th Mile Dasarahalli",
    "id": "35572"
  },
  {
    "lat": 13.04571,
    "lon": 77.50753,
    "name": "8th Mile Dasarahalli",
    "id": "38567"
  },
  {
    "lat": 13.04556,
    "lon": 77.50726,
    "name": "8th Mile Dasarahalli Arrival",
    "id": "39687"
  },
  {
    "lat": 13.12046,
    "lon": 77.39237,
    "name": "A G Export Garments Nelamangala",
    "id": "29453"
  },
  {
    "lat": 13.12048,
    "lon": 77.39242,
    "name": "A G Export Garments Nelamangala",
    "id": "35538"
  },
  {
    "lat": 12.97972,
    "lon": 77.65404,
    "name": "A P J Abdul Kalam Statue",
    "id": "21652"
  },
  {
    "lat": 12.97977,
    "lon": 77.65418,
    "name": "A P J Abdul Kalam Statue",
    "id": "21653"
  },
  {
    "lat": 13.0053,
    "lon": 77.64117,
    "name": "ADMC Quarters Office",
    "id": "38855"
  },
  {
    "lat": 12.86536,
    "lon": 77.59832,
    "name": "AECS Dental College",
    "id": "29450"
  },
  {
    "lat": 12.8654,
    "lon": 77.59836,
    "name": "AECS Dental College",
    "id": "35541"
  },
  {
    "lat": 12.96495,
    "lon": 77.71832,
    "name": "AECS Layout Cross",
    "id": "20595"
  },
  {
    "lat": 12.96511,
    "lon": 77.71827,
    "name": "AECS Layout Cross",
    "id": "20596"
  },
  {
    "lat": 12.88306,
    "lon": 77.64991,
    "name": "AECS Layout Singasandra",
    "id": "29451"
  },
  {
    "lat": 12.88286,
    "lon": 77.65018,
    "name": "AECS Layout Singasandra",
    "id": "35540"
  },
  {
    "lat": 12.91553,
    "lon": 77.69871,
    "name": "AET Junction",
    "id": "39893"
  },
  {
    "lat": 12.91558,
    "lon": 77.69881,
    "name": "AET Junction",
    "id": "39894"
  },
  {
    "lat": 12.95173,
    "lon": 77.47919,
    "name": "AGS Layout",
    "id": "29461"
  },
  {
    "lat": 12.95163,
    "lon": 77.47921,
    "name": "AGS Layout",
    "id": "35533"
  },
  {
    "lat": 12.91246,
    "lon": 77.53706,
    "name": "AGS Layout Arehalli",
    "id": "29462"
  },
  {
    "lat": 12.91246,
    "lon": 77.537,
    "name": "AGS Layout Arehalli",
    "id": "35532"
  },
  {
    "lat": 12.91347,
    "lon": 77.54088,
    "name": "AGS Layout Cross",
    "id": "23014"
  },
  {
    "lat": 12.91353,
    "lon": 77.54088,
    "name": "AGS Layout Cross",
    "id": "24342"
  },
  {
    "lat": 13.05899,
    "lon": 77.52141,
    "name": "AIR FORCE Quarters",
    "id": "29463"
  },
  {
    "lat": 13.05895,
    "lon": 77.52139,
    "name": "AIR FORCE Quarters",
    "id": "35531"
  },
  {
    "lat": 13.06983,
    "lon": 77.80832,
    "name": "AL Ameen Residential School",
    "id": "29474"
  },
  {
    "lat": 13.0696,
    "lon": 77.80836,
    "name": "AL Ameen Residential School",
    "id": "35521"
  },
  {
    "lat": 12.98777,
    "lon": 77.88168,
    "name": "AL-Agro Factory",
    "id": "37331"
  },
  {
    "lat": 12.98697,
    "lon": 77.88059,
    "name": "AL-Agro Factory",
    "id": "37332"
  },
  {
    "lat": 12.82938,
    "lon": 77.58759,
    "name": "AMC College",
    "id": "23060"
  },
  {
    "lat": 12.83005,
    "lon": 77.58779,
    "name": "AMC College",
    "id": "24134"
  },
  {
    "lat": 12.76209,
    "lon": 77.47036,
    "name": "APCO Factory",
    "id": "29549"
  },
  {
    "lat": 12.76195,
    "lon": 77.47044,
    "name": "APCO Factory",
    "id": "35454"
  },
  {
    "lat": 13.10494,
    "lon": 77.44396,
    "name": "APMC Yard",
    "id": "29550"
  },
  {
    "lat": 13.10488,
    "lon": 77.44388,
    "name": "APMC Yard",
    "id": "35453"
  },
  {
    "lat": 12.78276,
    "lon": 77.49966,
    "name": "APS College",
    "id": "23134"
  },
  {
    "lat": 12.78272,
    "lon": 77.4995,
    "name": "APS College",
    "id": "23632"
  },
  {
    "lat": 12.78284,
    "lon": 77.49959,
    "name": "APS College Cross",
    "id": "39681"
  },
  {
    "lat": 12.78637,
    "lon": 77.50249,
    "name": "APS College Cross",
    "id": "39682"
  },
  {
    "lat": 13.01651,
    "lon": 77.58615,
    "name": "ARMY PUBLIC SCHOOL (Parachute Regiment)",
    "id": "38962"
  },
  {
    "lat": 12.96239,
    "lon": 77.61892,
    "name": "ASC Centre",
    "id": "23190"
  },
  {
    "lat": 12.96248,
    "lon": 77.61903,
    "name": "ASC Centre",
    "id": "23930"
  },
  {
    "lat": 12.86158,
    "lon": 77.33503,
    "name": "Aane Kempegowdana Doddy",
    "id": "29426"
  },
  {
    "lat": 12.86152,
    "lon": 77.33503,
    "name": "Aane Kempegowdana Doddy",
    "id": "35856"
  },
  {
    "lat": 12.85975,
    "lon": 77.79411,
    "name": "Abbaiah Circle Sarjapura",
    "id": "23396"
  },
  {
    "lat": 12.8597,
    "lon": 77.79409,
    "name": "Abbaiah Circle Sarjapura",
    "id": "23418"
  },
  {
    "lat": 12.77419,
    "lon": 77.4095,
    "name": "Abbanakuppe",
    "id": "29428"
  },
  {
    "lat": 12.77413,
    "lon": 77.40941,
    "name": "Abbanakuppe",
    "id": "35564"
  },
  {
    "lat": 12.77126,
    "lon": 77.41627,
    "name": "Abbanakuppe Colony",
    "id": "29429"
  },
  {
    "lat": 12.77123,
    "lon": 77.41632,
    "name": "Abbanakuppe Colony",
    "id": "35563"
  },
  {
    "lat": 12.78775,
    "lon": 77.42874,
    "name": "Abbanakuppe KEB",
    "id": "30920"
  },
  {
    "lat": 12.78773,
    "lon": 77.42856,
    "name": "Abbanakuppe KEB",
    "id": "33404"
  },
  {
    "lat": 13.07696,
    "lon": 77.52587,
    "name": "Abbigere",
    "id": "29430"
  },
  {
    "lat": 13.07692,
    "lon": 77.52589,
    "name": "Abbigere",
    "id": "35562"
  },
  {
    "lat": 13.07068,
    "lon": 77.52978,
    "name": "Abbigere Cross",
    "id": "29431"
  },
  {
    "lat": 13.07069,
    "lon": 77.52981,
    "name": "Abbigere Cross",
    "id": "35561"
  },
  {
    "lat": 13.07107,
    "lon": 77.52816,
    "name": "Abbigere Dinne",
    "id": "29432"
  },
  {
    "lat": 13.07099,
    "lon": 77.52812,
    "name": "Abbigere Dinne",
    "id": "35560"
  },
  {
    "lat": 13.07248,
    "lon": 77.52353,
    "name": "Abbigere Gate",
    "id": "29433"
  },
  {
    "lat": 13.07243,
    "lon": 77.52355,
    "name": "Abbigere Gate",
    "id": "35559"
  },
  {
    "lat": 13.00234,
    "lon": 77.48822,
    "name": "Acharya College",
    "id": "22965"
  },
  {
    "lat": 13.00238,
    "lon": 77.48823,
    "name": "Acharya College",
    "id": "22966"
  },
  {
    "lat": 13.08354,
    "lon": 77.4841,
    "name": "Acharya Institute of Technology",
    "id": "29434"
  },
  {
    "lat": 13.08351,
    "lon": 77.48416,
    "name": "Acharya Institute of Technology",
    "id": "35558"
  },
  {
    "lat": 13.0856,
    "lon": 77.48659,
    "name": "Acharya Institute of Technology",
    "id": "40369"
  },
  {
    "lat": 13.0842,
    "lon": 77.48657,
    "name": "Achyuthanagara Gate",
    "id": "29435"
  },
  {
    "lat": 13.08416,
    "lon": 77.48656,
    "name": "Achyuthanagara Gate",
    "id": "35557"
  },
  {
    "lat": 12.94707,
    "lon": 77.31056,
    "name": "Adakamaranahalli (Magadi Road)",
    "id": "29437"
  },
  {
    "lat": 12.94705,
    "lon": 77.31051,
    "name": "Adakamaranahalli (Magadi Road)",
    "id": "39571"
  },
  {
    "lat": 12.95445,
    "lon": 77.30923,
    "name": "Adakamaranahalli Cross (Magadi Road)",
    "id": "29438"
  },
  {
    "lat": 12.9544,
    "lon": 77.30926,
    "name": "Adakamaranahalli Cross (Magadi Road)",
    "id": "35554"
  },
  {
    "lat": 13.07065,
    "lon": 77.4449,
    "name": "Adakimaranahalli",
    "id": "21639"
  },
  {
    "lat": 13.06989,
    "lon": 77.44532,
    "name": "Adakimaranahalli",
    "id": "22974"
  },
  {
    "lat": 13.07028,
    "lon": 77.44482,
    "name": "Adakimaranahalli",
    "id": "29439"
  },
  {
    "lat": 13.06492,
    "lon": 77.44329,
    "name": "Adakimaranahalli",
    "id": "29441"
  },
  {
    "lat": 13.07619,
    "lon": 77.42374,
    "name": "Adarshanagara",
    "id": "29442"
  },
  {
    "lat": 13.07621,
    "lon": 77.42378,
    "name": "Adarshanagara",
    "id": "35552"
  },
  {
    "lat": 13.18672,
    "lon": 77.55112,
    "name": "Adde Vishwanathapura",
    "id": "29444"
  },
  {
    "lat": 13.18669,
    "lon": 77.5511,
    "name": "Adde Vishwanathapura",
    "id": "35550"
  },
  {
    "lat": 13.17297,
    "lon": 77.56958,
    "name": "Addiganahalli",
    "id": "29445"
  },
  {
    "lat": 13.17292,
    "lon": 77.56963,
    "name": "Addiganahalli",
    "id": "35549"
  },
  {
    "lat": 13.1728,
    "lon": 77.57126,
    "name": "Addiganahalli Extension",
    "id": "22981"
  },
  {
    "lat": 13.17288,
    "lon": 77.57123,
    "name": "Addiganahalli Extension",
    "id": "31347"
  },
  {
    "lat": 12.82573,
    "lon": 77.80302,
    "name": "Adigara Kallahalli",
    "id": "22982"
  },
  {
    "lat": 12.82578,
    "lon": 77.80293,
    "name": "Adigara Kallahalli",
    "id": "23391"
  },
  {
    "lat": 12.81457,
    "lon": 77.75116,
    "name": "Adigondanahalli",
    "id": "29446"
  },
  {
    "lat": 12.81456,
    "lon": 77.75126,
    "name": "Adigondanahalli",
    "id": "35548"
  },
  {
    "lat": 12.80604,
    "lon": 77.74276,
    "name": "Adigondanahalli Junction",
    "id": "25578"
  },
  {
    "lat": 12.80604,
    "lon": 77.74266,
    "name": "Adigondanahalli Junction",
    "id": "32772"
  },
  {
    "lat": 12.90354,
    "lon": 77.51078,
    "name": "Aditya Bakery",
    "id": "39104"
  },
  {
    "lat": 12.90351,
    "lon": 77.51069,
    "name": "Aditya Bakery",
    "id": "39105"
  },
  {
    "lat": 13.20862,
    "lon": 77.60376,
    "name": "Adrsha Savana",
    "id": "38161"
  },
  {
    "lat": 13.20859,
    "lon": 77.60381,
    "name": "Adrsha Savana",
    "id": "38162"
  },
  {
    "lat": 12.94387,
    "lon": 77.6077,
    "name": "Adugodi",
    "id": "29448"
  },
  {
    "lat": 12.94397,
    "lon": 77.60748,
    "name": "Adugodi",
    "id": "35544"
  },
  {
    "lat": 12.94384,
    "lon": 77.60761,
    "name": "Adugodi",
    "id": "35546"
  },
  {
    "lat": 12.93897,
    "lon": 77.60976,
    "name": "Adugodi Police Station",
    "id": "22990"
  },
  {
    "lat": 12.93985,
    "lon": 77.6095,
    "name": "Adugodi Police Station",
    "id": "23802"
  },
  {
    "lat": 12.9769,
    "lon": 77.44359,
    "name": "Adukale Food Factory",
    "id": "39938"
  },
  {
    "lat": 12.97693,
    "lon": 77.44371,
    "name": "Adukale Food Factory",
    "id": "39939"
  },
  {
    "lat": 13.05553,
    "lon": 77.7058,
    "name": "Aduru",
    "id": "22992"
  },
  {
    "lat": 12.73303,
    "lon": 77.65433,
    "name": "Aduru",
    "id": "22993"
  },
  {
    "lat": 12.73301,
    "lon": 77.6544,
    "name": "Aduru",
    "id": "22994"
  },
  {
    "lat": 13.05535,
    "lon": 77.70589,
    "name": "Aduru",
    "id": "22995"
  },
  {
    "lat": 12.73318,
    "lon": 77.657,
    "name": "Aduru",
    "id": "36662"
  },
  {
    "lat": 13.17289,
    "lon": 77.73066,
    "name": "Aerospace Bagalur",
    "id": "29452"
  },
  {
    "lat": 13.17277,
    "lon": 77.73058,
    "name": "Aerospace Bagalur",
    "id": "35539"
  },
  {
    "lat": 13.21292,
    "lon": 77.73612,
    "name": "Agalakote",
    "id": "29454"
  },
  {
    "lat": 13.21287,
    "lon": 77.73615,
    "name": "Agalakote",
    "id": "35537"
  },
  {
    "lat": 12.8429,
    "lon": 77.4863,
    "name": "Agara",
    "id": "23002"
  },
  {
    "lat": 12.84479,
    "lon": 77.48713,
    "name": "Agara",
    "id": "23003"
  },
  {
    "lat": 12.84477,
    "lon": 77.48709,
    "name": "Agara",
    "id": "23004"
  },
  {
    "lat": 12.84288,
    "lon": 77.48626,
    "name": "Agara",
    "id": "31348"
  },
  {
    "lat": 12.84888,
    "lon": 77.52214,
    "name": "Agara Cross",
    "id": "21640"
  },
  {
    "lat": 12.84888,
    "lon": 77.52196,
    "name": "Agara Cross",
    "id": "21641"
  },
  {
    "lat": 12.92433,
    "lon": 77.65073,
    "name": "Agara Junction",
    "id": "20597"
  },
  {
    "lat": 12.92452,
    "lon": 77.65028,
    "name": "Agara Junction",
    "id": "20598"
  },
  {
    "lat": 12.92464,
    "lon": 77.64937,
    "name": "Agara Junction",
    "id": "24000"
  },
  {
    "lat": 12.92468,
    "lon": 77.64998,
    "name": "Agara Junction",
    "id": "35769"
  },
  {
    "lat": 12.92417,
    "lon": 77.65075,
    "name": "Agara Junction",
    "id": "38120"
  },
  {
    "lat": 12.9239,
    "lon": 77.65172,
    "name": "Agara Junction",
    "id": "38462"
  },
  {
    "lat": 12.97853,
    "lon": 77.54293,
    "name": "Agrahara Dasarahalli",
    "id": "20599"
  },
  {
    "lat": 12.97874,
    "lon": 77.54121,
    "name": "Agrahara Dasarahalli",
    "id": "20600"
  },
  {
    "lat": 13.09837,
    "lon": 77.62683,
    "name": "Agrahara Layout",
    "id": "29456"
  },
  {
    "lat": 13.09838,
    "lon": 77.62671,
    "name": "Agrahara Layout",
    "id": "35535"
  },
  {
    "lat": 13.098,
    "lon": 77.61832,
    "name": "Agrahara Layout Cross",
    "id": "39986"
  },
  {
    "lat": 13.09807,
    "lon": 77.61834,
    "name": "Agrahara Layout Cross",
    "id": "39987"
  },
  {
    "lat": 13.13071,
    "lon": 77.45347,
    "name": "Agraharapalya Gate",
    "id": "31849"
  },
  {
    "lat": 13.13065,
    "lon": 77.45343,
    "name": "Agraharapalya Gate",
    "id": "35686"
  },
  {
    "lat": 13.25849,
    "lon": 77.38757,
    "name": "Ainahalli",
    "id": "36061"
  },
  {
    "lat": 13.2585,
    "lon": 77.38762,
    "name": "Ainahalli",
    "id": "36062"
  },
  {
    "lat": 13.22276,
    "lon": 77.74085,
    "name": "Air Lines Dhaba Gate",
    "id": "29464"
  },
  {
    "lat": 13.2225,
    "lon": 77.74086,
    "name": "Air Lines Dhaba Gate",
    "id": "35530"
  },
  {
    "lat": 13.02684,
    "lon": 77.57964,
    "name": "Air force Gate Ashwathnagara",
    "id": "39704"
  },
  {
    "lat": 13.19908,
    "lon": 77.65792,
    "name": "Airport Trumpet",
    "id": "29465"
  },
  {
    "lat": 13.19905,
    "lon": 77.6582,
    "name": "Airport Trumpet",
    "id": "35529"
  },
  {
    "lat": 12.9359,
    "lon": 77.61551,
    "name": "Airtel office Koramangala",
    "id": "39835"
  },
  {
    "lat": 12.95709,
    "lon": 77.76839,
    "name": "Ajjagondahalli",
    "id": "29467"
  },
  {
    "lat": 12.95705,
    "lon": 77.76842,
    "name": "Ajjagondahalli",
    "id": "35527"
  },
  {
    "lat": 12.9167,
    "lon": 77.3865,
    "name": "Ajjanahalli",
    "id": "29468"
  },
  {
    "lat": 12.91666,
    "lon": 77.38648,
    "name": "Ajjanahalli",
    "id": "35526"
  },
  {
    "lat": 12.84185,
    "lon": 77.64673,
    "name": "Ajmeer Apartment Neeladri Road",
    "id": "29469"
  },
  {
    "lat": 12.84181,
    "lon": 77.64675,
    "name": "Ajmeer Apartment Neeladri Road",
    "id": "35525"
  },
  {
    "lat": 13.16162,
    "lon": 77.64223,
    "name": "Akkayammana Betta",
    "id": "23022"
  },
  {
    "lat": 13.17134,
    "lon": 77.61472,
    "name": "Akkayammana Betta Huttanahalli Cross",
    "id": "29470"
  },
  {
    "lat": 13.25413,
    "lon": 77.67796,
    "name": "Akkipete Devanahalli",
    "id": "29471"
  },
  {
    "lat": 13.25414,
    "lon": 77.67798,
    "name": "Akkipete Devanahalli",
    "id": "35524"
  },
  {
    "lat": 12.96186,
    "lon": 77.59789,
    "name": "Akkithimmanahalli",
    "id": "23668"
  },
  {
    "lat": 12.96194,
    "lon": 77.5978,
    "name": "Akkithimmanahalli",
    "id": "31349"
  },
  {
    "lat": 13.0208,
    "lon": 77.68338,
    "name": "Akshayanagara",
    "id": "29472"
  },
  {
    "lat": 13.02069,
    "lon": 77.68343,
    "name": "Akshayanagara",
    "id": "35523"
  },
  {
    "lat": 12.87657,
    "lon": 77.61101,
    "name": "Akshayanagara New Town",
    "id": "29473"
  },
  {
    "lat": 12.87657,
    "lon": 77.61166,
    "name": "Akshayanagara New Town",
    "id": "35522"
  },
  {
    "lat": 12.87874,
    "lon": 77.60967,
    "name": "Akshyanagara Double Road",
    "id": "25148"
  },
  {
    "lat": 12.87874,
    "lon": 77.6097,
    "name": "Akshyanagara Double Road",
    "id": "32565"
  },
  {
    "lat": 12.72813,
    "lon": 77.64802,
    "name": "Aladamara Chikkanahalli Cross",
    "id": "29475"
  },
  {
    "lat": 12.72807,
    "lon": 77.648,
    "name": "Aladamara Chikkanahalli Cross",
    "id": "35520"
  },
  {
    "lat": 13.01327,
    "lon": 77.52095,
    "name": "Aladamara Laggere",
    "id": "29476"
  },
  {
    "lat": 13.01332,
    "lon": 77.52098,
    "name": "Aladamara Laggere",
    "id": "35519"
  },
  {
    "lat": 13.27758,
    "lon": 77.5216,
    "name": "Alahalli",
    "id": "25681"
  },
  {
    "lat": 13.27752,
    "lon": 77.52162,
    "name": "Alahalli",
    "id": "32821"
  },
  {
    "lat": 12.89273,
    "lon": 77.88659,
    "name": "Alambadi",
    "id": "29477"
  },
  {
    "lat": 12.8927,
    "lon": 77.88656,
    "name": "Alambadi",
    "id": "35518"
  },
  {
    "lat": 13.18089,
    "lon": 77.32413,
    "name": "Alanayakanahalli Gate",
    "id": "29478"
  },
  {
    "lat": 13.18069,
    "lon": 77.32407,
    "name": "Alanayakanahalli Gate",
    "id": "35517"
  },
  {
    "lat": 12.82033,
    "lon": 77.73652,
    "name": "Ali Bommasandra",
    "id": "23034"
  },
  {
    "lat": 12.82032,
    "lon": 77.73644,
    "name": "Ali Bommasandra",
    "id": "23035"
  },
  {
    "lat": 12.99388,
    "lon": 77.58905,
    "name": "Aliaskar Embassy",
    "id": "39597"
  },
  {
    "lat": 13.03392,
    "lon": 77.54098,
    "name": "Alisda",
    "id": "21452"
  },
  {
    "lat": 13.03404,
    "lon": 77.54112,
    "name": "Alisda",
    "id": "21453"
  },
  {
    "lat": 13.08806,
    "lon": 77.58865,
    "name": "Allalasandra",
    "id": "29480"
  },
  {
    "lat": 13.08809,
    "lon": 77.58863,
    "name": "Allalasandra",
    "id": "35515"
  },
  {
    "lat": 13.08664,
    "lon": 77.59375,
    "name": "Allalasandra Gate",
    "id": "29481"
  },
  {
    "lat": 13.08444,
    "lon": 77.59437,
    "name": "Allalasandra Gate",
    "id": "35106"
  },
  {
    "lat": 13.08686,
    "lon": 77.59386,
    "name": "Allalasandra Gate",
    "id": "35608"
  },
  {
    "lat": 13.08448,
    "lon": 77.59386,
    "name": "Allalasandra Gate",
    "id": "39009"
  },
  {
    "lat": 13.08483,
    "lon": 77.59415,
    "name": "Allalasandra Gate FLY",
    "id": "35151"
  },
  {
    "lat": 13.085,
    "lon": 77.59437,
    "name": "Allalasandra Gate FLY",
    "id": "39271"
  },
  {
    "lat": 12.9356,
    "lon": 77.3661,
    "name": "Allammanapalya",
    "id": "29483"
  },
  {
    "lat": 12.93554,
    "lon": 77.36618,
    "name": "Allammanapalya",
    "id": "35513"
  },
  {
    "lat": 13.07701,
    "lon": 77.66207,
    "name": "Alpha College Chikka Gubbi",
    "id": "29484"
  },
  {
    "lat": 13.07697,
    "lon": 77.66209,
    "name": "Alpha College Chikka Gubbi",
    "id": "35512"
  },
  {
    "lat": 13.08482,
    "lon": 77.46553,
    "name": "Aluru",
    "id": "29485"
  },
  {
    "lat": 13.08487,
    "lon": 77.46561,
    "name": "Aluru",
    "id": "35511"
  },
  {
    "lat": 13.09262,
    "lon": 77.44748,
    "name": "Aluru BDA 1st Stage",
    "id": "38789"
  },
  {
    "lat": 13.09146,
    "lon": 77.44993,
    "name": "Aluru BDA 2nd Stage",
    "id": "29486"
  },
  {
    "lat": 13.09138,
    "lon": 77.44998,
    "name": "Aluru BDA 2nd Stage",
    "id": "35510"
  },
  {
    "lat": 13.0824,
    "lon": 77.47479,
    "name": "Aluru Cross",
    "id": "29487"
  },
  {
    "lat": 13.08236,
    "lon": 77.47477,
    "name": "Aluru Cross",
    "id": "35509"
  },
  {
    "lat": 13.09723,
    "lon": 77.47067,
    "name": "Alurupalya",
    "id": "29488"
  },
  {
    "lat": 13.09721,
    "lon": 77.47062,
    "name": "Alurupalya",
    "id": "35508"
  },
  {
    "lat": 13.05526,
    "lon": 77.62929,
    "name": "Amarajyothi Badavane",
    "id": "29489"
  },
  {
    "lat": 13.05525,
    "lon": 77.62932,
    "name": "Amarajyothi Badavane",
    "id": "35507"
  },
  {
    "lat": 13.09719,
    "lon": 77.54597,
    "name": "Amba Bhavani Nagara",
    "id": "29490"
  },
  {
    "lat": 13.09721,
    "lon": 77.54603,
    "name": "Amba Bhavani Nagara",
    "id": "35506"
  },
  {
    "lat": 13.11013,
    "lon": 77.62408,
    "name": "Ambabhavani Badavane",
    "id": "39321"
  },
  {
    "lat": 13.24322,
    "lon": 77.38657,
    "name": "Ambalagere",
    "id": "36059"
  },
  {
    "lat": 13.24327,
    "lon": 77.38658,
    "name": "Ambalagere",
    "id": "36060"
  },
  {
    "lat": 13.06995,
    "lon": 77.88026,
    "name": "Ambalipura",
    "id": "39735"
  },
  {
    "lat": 12.87073,
    "lon": 77.65404,
    "name": "Ambedkar Circle CK Nagara",
    "id": "40494"
  },
  {
    "lat": 12.87076,
    "lon": 77.65408,
    "name": "Ambedkar Circle CK Nagara",
    "id": "40495"
  },
  {
    "lat": 12.96319,
    "lon": 77.50502,
    "name": "Ambedkar Institute of Technology",
    "id": "21454"
  },
  {
    "lat": 12.96338,
    "lon": 77.50515,
    "name": "Ambedkar Institute of Technology",
    "id": "21643"
  },
  {
    "lat": 13.02327,
    "lon": 77.6126,
    "name": "Ambedkar Medical College Shampura",
    "id": "35503"
  },
  {
    "lat": 12.89914,
    "lon": 77.71286,
    "name": "Ambedkar Nagara",
    "id": "23058"
  },
  {
    "lat": 12.89929,
    "lon": 77.71273,
    "name": "Ambedkar Nagara",
    "id": "23901"
  },
  {
    "lat": 13.15775,
    "lon": 77.33712,
    "name": "Ambika School",
    "id": "29494"
  },
  {
    "lat": 13.15775,
    "lon": 77.33719,
    "name": "Ambika School",
    "id": "35502"
  },
  {
    "lat": 12.94936,
    "lon": 77.48882,
    "name": "Amma Ashrama Cross",
    "id": "20601"
  },
  {
    "lat": 12.94958,
    "lon": 77.48867,
    "name": "Amma Ashrama Cross",
    "id": "20602"
  },
  {
    "lat": 13.07508,
    "lon": 77.71811,
    "name": "Amogha Layout",
    "id": "29497"
  },
  {
    "lat": 13.0751,
    "lon": 77.71814,
    "name": "Amogha Layout",
    "id": "35499"
  },
  {
    "lat": 12.80265,
    "lon": 77.66226,
    "name": "Amphenol",
    "id": "40474"
  },
  {
    "lat": 12.80266,
    "lon": 77.66213,
    "name": "Amphenol",
    "id": "40475"
  },
  {
    "lat": 13.12479,
    "lon": 77.54721,
    "name": "Amritha Ayurvedic Hospital",
    "id": "29498"
  },
  {
    "lat": 13.12476,
    "lon": 77.54722,
    "name": "Amritha Ayurvedic Hospital",
    "id": "35498"
  },
  {
    "lat": 12.90921,
    "lon": 77.64153,
    "name": "Amruth Sweets",
    "id": "38136"
  },
  {
    "lat": 12.90926,
    "lon": 77.64147,
    "name": "Amruth Sweets",
    "id": "38137"
  },
  {
    "lat": 12.8968,
    "lon": 77.6752,
    "name": "Amrutha Engineering College",
    "id": "35101"
  },
  {
    "lat": 12.89689,
    "lon": 77.67517,
    "name": "Amrutha Engineering College",
    "id": "35368"
  },
  {
    "lat": 13.06576,
    "lon": 77.60081,
    "name": "Amruthahalli",
    "id": "23067"
  },
  {
    "lat": 13.06574,
    "lon": 77.60076,
    "name": "Amruthahalli",
    "id": "35173"
  },
  {
    "lat": 13.066,
    "lon": 77.59824,
    "name": "Amruthahalli Bank",
    "id": "29711"
  },
  {
    "lat": 13.06604,
    "lon": 77.59824,
    "name": "Amruthahalli Bank",
    "id": "31884"
  },
  {
    "lat": 12.8394,
    "lon": 77.54987,
    "name": "Amruthanagara",
    "id": "31850"
  },
  {
    "lat": 12.83949,
    "lon": 77.54993,
    "name": "Amruthanagara",
    "id": "35497"
  },
  {
    "lat": 13.05518,
    "lon": 77.59969,
    "name": "Amruthanagara Canara Bank",
    "id": "29502"
  },
  {
    "lat": 13.05506,
    "lon": 77.59974,
    "name": "Amruthanagara Canara Bank",
    "id": "35496"
  },
  {
    "lat": 13.11346,
    "lon": 77.62438,
    "name": "Amruthaya central school",
    "id": "39318"
  },
  {
    "lat": 13.06842,
    "lon": 77.68234,
    "name": "Anagalipura",
    "id": "29503"
  },
  {
    "lat": 13.06838,
    "lon": 77.68241,
    "name": "Anagalipura",
    "id": "35495"
  },
  {
    "lat": 13.07306,
    "lon": 77.67885,
    "name": "Anagalipura Gate",
    "id": "29504"
  },
  {
    "lat": 13.07303,
    "lon": 77.67888,
    "name": "Anagalipura Gate",
    "id": "35494"
  },
  {
    "lat": 12.9275,
    "lon": 77.60062,
    "name": "Ananda Ashrama (BG Rd)",
    "id": "22744"
  },
  {
    "lat": 12.92644,
    "lon": 77.60037,
    "name": "Ananda Ashrama (BG Rd)",
    "id": "22768"
  },
  {
    "lat": 12.818,
    "lon": 77.58395,
    "name": "Ananda Ashrama Bannerughatta",
    "id": "39748"
  },
  {
    "lat": 12.81799,
    "lon": 77.58412,
    "name": "Ananda Ashrama Bannerughatta",
    "id": "39749"
  },
  {
    "lat": 12.98115,
    "lon": 77.57466,
    "name": "Ananda Rao Circle",
    "id": "20603"
  },
  {
    "lat": 12.98074,
    "lon": 77.57503,
    "name": "Ananda Rao Circle",
    "id": "29506"
  },
  {
    "lat": 12.98117,
    "lon": 77.57694,
    "name": "Ananda Rao Circle",
    "id": "35375"
  },
  {
    "lat": 12.9838,
    "lon": 77.24209,
    "name": "Anandanagara",
    "id": "35492"
  },
  {
    "lat": 13.02423,
    "lon": 77.69285,
    "name": "Anandapura",
    "id": "29511"
  },
  {
    "lat": 13.0241,
    "lon": 77.6927,
    "name": "Anandapura",
    "id": "35489"
  },
  {
    "lat": 12.82781,
    "lon": 77.56638,
    "name": "Anandgiri layout",
    "id": "39923"
  },
  {
    "lat": 12.82803,
    "lon": 77.56648,
    "name": "Anandgiri layout",
    "id": "39924"
  },
  {
    "lat": 13.11474,
    "lon": 77.56709,
    "name": "Ananthapura",
    "id": "29512"
  },
  {
    "lat": 13.11478,
    "lon": 77.56706,
    "name": "Ananthapura",
    "id": "35488"
  },
  {
    "lat": 13.1146,
    "lon": 77.57901,
    "name": "Ananthapura Gate",
    "id": "23081"
  },
  {
    "lat": 13.11478,
    "lon": 77.57907,
    "name": "Ananthapura Gate",
    "id": "23082"
  },
  {
    "lat": 12.90473,
    "lon": 77.86785,
    "name": "Anche Muskuru",
    "id": "29513"
  },
  {
    "lat": 12.90471,
    "lon": 77.8678,
    "name": "Anche Muskuru",
    "id": "35487"
  },
  {
    "lat": 12.89258,
    "lon": 77.45798,
    "name": "Anchepalya",
    "id": "20604"
  },
  {
    "lat": 12.8926,
    "lon": 77.45753,
    "name": "Anchepalya",
    "id": "20605"
  },
  {
    "lat": 13.05529,
    "lon": 77.47983,
    "name": "Anchepalya",
    "id": "21644"
  },
  {
    "lat": 13.05497,
    "lon": 77.47936,
    "name": "Anchepalya",
    "id": "23084"
  },
  {
    "lat": 12.67429,
    "lon": 77.491,
    "name": "Anchibare Gandhinagara",
    "id": "39960"
  },
  {
    "lat": 12.67434,
    "lon": 77.491,
    "name": "Anchibare Gandhinagara",
    "id": "39961"
  },
  {
    "lat": 12.77061,
    "lon": 77.43203,
    "name": "Anchipura",
    "id": "29515"
  },
  {
    "lat": 12.77008,
    "lon": 77.43196,
    "name": "Anchipura",
    "id": "35485"
  },
  {
    "lat": 12.76763,
    "lon": 77.43855,
    "name": "Anchipura Colony",
    "id": "29516"
  },
  {
    "lat": 12.76759,
    "lon": 77.43854,
    "name": "Anchipura Colony",
    "id": "35484"
  },
  {
    "lat": 12.79009,
    "lon": 77.44125,
    "name": "Anchipura Cross",
    "id": "29517"
  },
  {
    "lat": 12.79006,
    "lon": 77.44125,
    "name": "Anchipura Cross",
    "id": "35483"
  },
  {
    "lat": 13.00805,
    "lon": 77.48484,
    "name": "Andhrahalli",
    "id": "29518"
  },
  {
    "lat": 13.00802,
    "lon": 77.48484,
    "name": "Andhrahalli",
    "id": "35482"
  },
  {
    "lat": 13.11545,
    "lon": 77.74528,
    "name": "Andhrahalli Gate",
    "id": "29519"
  },
  {
    "lat": 13.11547,
    "lon": 77.74531,
    "name": "Andhrahalli Gate",
    "id": "35481"
  },
  {
    "lat": 13.00956,
    "lon": 77.48295,
    "name": "Andhrahalli Govt School",
    "id": "29520"
  },
  {
    "lat": 13.00952,
    "lon": 77.48294,
    "name": "Andhrahalli Govt School",
    "id": "35480"
  },
  {
    "lat": 12.62071,
    "lon": 77.51387,
    "name": "Ane Hosahalli Gate",
    "id": "29521"
  },
  {
    "lat": 12.62062,
    "lon": 77.51383,
    "name": "Ane Hosahalli Gate",
    "id": "35479"
  },
  {
    "lat": 12.97983,
    "lon": 77.24132,
    "name": "Anehalla",
    "id": "35478"
  },
  {
    "lat": 12.70939,
    "lon": 77.69641,
    "name": "Anekal",
    "id": "23094"
  },
  {
    "lat": 12.71677,
    "lon": 77.70018,
    "name": "Anekal Circle",
    "id": "23095"
  },
  {
    "lat": 12.71674,
    "lon": 77.70009,
    "name": "Anekal Circle",
    "id": "23974"
  },
  {
    "lat": 12.76835,
    "lon": 77.77015,
    "name": "Anekal Road Junction",
    "id": "30365"
  },
  {
    "lat": 12.76839,
    "lon": 77.77011,
    "name": "Anekal Road Junction",
    "id": "33142"
  },
  {
    "lat": 12.95289,
    "lon": 77.60532,
    "name": "Anepalya",
    "id": "23800"
  },
  {
    "lat": 12.95303,
    "lon": 77.60518,
    "name": "Anepalya",
    "id": "23818"
  },
  {
    "lat": 12.92427,
    "lon": 77.82438,
    "name": "Anjan Vidya Kendra School",
    "id": "29525"
  },
  {
    "lat": 12.92411,
    "lon": 77.82445,
    "name": "Anjan Vidya Kendra School",
    "id": "35475"
  },
  {
    "lat": 12.911,
    "lon": 77.69787,
    "name": "Anjanadri High School Doddakannahalli",
    "id": "39891"
  },
  {
    "lat": 12.91097,
    "lon": 77.69795,
    "name": "Anjanadri High School Doddakannahalli",
    "id": "39892"
  },
  {
    "lat": 13.04511,
    "lon": 77.57437,
    "name": "Anjanamurty",
    "id": "38756"
  },
  {
    "lat": 12.98617,
    "lon": 77.48817,
    "name": "Anjananagara",
    "id": "21455"
  },
  {
    "lat": 12.98614,
    "lon": 77.48847,
    "name": "Anjananagara",
    "id": "21456"
  },
  {
    "lat": 12.86196,
    "lon": 77.56393,
    "name": "Anjanapura",
    "id": "23101"
  },
  {
    "lat": 12.86196,
    "lon": 77.56381,
    "name": "Anjanapura",
    "id": "23649"
  },
  {
    "lat": 12.862,
    "lon": 77.56385,
    "name": "Anjanapura",
    "id": "23651"
  },
  {
    "lat": 12.8556,
    "lon": 77.57056,
    "name": "Anjanapura 10th  Block",
    "id": "38034"
  },
  {
    "lat": 12.85593,
    "lon": 77.56907,
    "name": "Anjanapura 10th Block",
    "id": "21294"
  },
  {
    "lat": 12.85564,
    "lon": 77.57054,
    "name": "Anjanapura 10th Block",
    "id": "38032"
  },
  {
    "lat": 12.85601,
    "lon": 77.569,
    "name": "Anjanapura 10th Block",
    "id": "38033"
  },
  {
    "lat": 12.85225,
    "lon": 77.57235,
    "name": "Anjanapura 11th Block",
    "id": "29373"
  },
  {
    "lat": 12.85224,
    "lon": 77.57265,
    "name": "Anjanapura 11th Block",
    "id": "35416"
  },
  {
    "lat": 12.85995,
    "lon": 77.54822,
    "name": "Anjanapura 1st Block",
    "id": "29526"
  },
  {
    "lat": 12.8599,
    "lon": 77.54814,
    "name": "Anjanapura 1st Block",
    "id": "35474"
  },
  {
    "lat": 12.86573,
    "lon": 77.55245,
    "name": "Anjanapura 2nd Block",
    "id": "29527"
  },
  {
    "lat": 12.86563,
    "lon": 77.55253,
    "name": "Anjanapura 2nd Block",
    "id": "35473"
  },
  {
    "lat": 12.86054,
    "lon": 77.55939,
    "name": "Anjanapura 2nd Block Cross (LBSN)",
    "id": "29528"
  },
  {
    "lat": 12.86053,
    "lon": 77.55945,
    "name": "Anjanapura 2nd Block Cross (LBSN)",
    "id": "38778"
  },
  {
    "lat": 12.85322,
    "lon": 77.55352,
    "name": "Anjanapura 6th Block (Lakshmivenkateshwara Temple)",
    "id": "39977"
  },
  {
    "lat": 12.85321,
    "lon": 77.55342,
    "name": "Anjanapura 6th Block (Lakshmivenkateshwara Temple)",
    "id": "39978"
  },
  {
    "lat": 12.86183,
    "lon": 77.56091,
    "name": "Anjanapura Cross",
    "id": "29529"
  },
  {
    "lat": 12.86183,
    "lon": 77.56083,
    "name": "Anjanapura Cross",
    "id": "35471"
  },
  {
    "lat": 12.86477,
    "lon": 77.56304,
    "name": "Anjanapura RTO Office",
    "id": "39836"
  },
  {
    "lat": 12.7173,
    "lon": 77.70046,
    "name": "Anjaneya Temple Anekal",
    "id": "23106"
  },
  {
    "lat": 12.71729,
    "lon": 77.70025,
    "name": "Anjaneya Temple Anekal",
    "id": "24184"
  },
  {
    "lat": 12.79986,
    "lon": 77.78226,
    "name": "Anjaneya Temple Bidaraguppe",
    "id": "21645"
  },
  {
    "lat": 12.79988,
    "lon": 77.78219,
    "name": "Anjaneya Temple Bidaraguppe",
    "id": "21646"
  },
  {
    "lat": 13.2351,
    "lon": 77.71302,
    "name": "Anjaneya Temple Devanahalli",
    "id": "29530"
  },
  {
    "lat": 13.23506,
    "lon": 77.713,
    "name": "Anjaneya Temple Devanahalli",
    "id": "35470"
  },
  {
    "lat": 13.09737,
    "lon": 77.39777,
    "name": "Anjaneya Temple Nelamangala",
    "id": "21647"
  },
  {
    "lat": 13.09723,
    "lon": 77.39774,
    "name": "Anjaneya Temple Nelamangala",
    "id": "29533"
  },
  {
    "lat": 13.01371,
    "lon": 77.48343,
    "name": "Anjaneya Temple Thigalarapalya",
    "id": "29534"
  },
  {
    "lat": 13.01372,
    "lon": 77.48347,
    "name": "Anjaneya Temple Thigalarapalya",
    "id": "35468"
  },
  {
    "lat": 13.20433,
    "lon": 77.79846,
    "name": "Ankanahalli",
    "id": "29536"
  },
  {
    "lat": 13.20433,
    "lon": 77.79838,
    "name": "Ankanahalli",
    "id": "35466"
  },
  {
    "lat": 12.70677,
    "lon": 77.51728,
    "name": "Ankegowdana Doddy",
    "id": "29537"
  },
  {
    "lat": 12.70677,
    "lon": 77.51733,
    "name": "Ankegowdana Doddy",
    "id": "35465"
  },
  {
    "lat": 12.92613,
    "lon": 77.55016,
    "name": "Anna Kuteera Kathriguppe",
    "id": "39526"
  },
  {
    "lat": 12.69958,
    "lon": 77.38452,
    "name": "Annahalli",
    "id": "35464"
  },
  {
    "lat": 12.96998,
    "lon": 77.49655,
    "name": "Annapoorneshwari nagara Cross",
    "id": "35463"
  },
  {
    "lat": 12.98077,
    "lon": 77.50687,
    "name": "Annapoorneshwarinagara",
    "id": "22686"
  },
  {
    "lat": 12.98002,
    "lon": 77.50667,
    "name": "Annapoorneshwarinagara",
    "id": "22687"
  },
  {
    "lat": 13.0009,
    "lon": 77.51745,
    "name": "Annapoorneshwarinagara (HGH)",
    "id": "39966"
  },
  {
    "lat": 12.97816,
    "lon": 77.50434,
    "name": "Annapoorneshwarinagara 3rd Main Road",
    "id": "22684"
  },
  {
    "lat": 12.97811,
    "lon": 77.50446,
    "name": "Annapoorneshwarinagara 3rd Main Road",
    "id": "22688"
  },
  {
    "lat": 12.97002,
    "lon": 77.49658,
    "name": "Annapoorneshwarinagara Cross",
    "id": "29540"
  },
  {
    "lat": 12.97203,
    "lon": 77.49697,
    "name": "Annapoorneshwarinagara Water Tank",
    "id": "29541"
  },
  {
    "lat": 12.97196,
    "lon": 77.49702,
    "name": "Annapoorneshwarinagara Water Tank",
    "id": "35462"
  },
  {
    "lat": 13.13874,
    "lon": 77.50802,
    "name": "Annapurneshwari Badavane",
    "id": "39138"
  },
  {
    "lat": 13.13879,
    "lon": 77.50799,
    "name": "Annapurneshwari Badavane",
    "id": "39139"
  },
  {
    "lat": 12.96444,
    "lon": 77.67236,
    "name": "Annasandrapalya",
    "id": "21648"
  },
  {
    "lat": 12.96444,
    "lon": 77.67252,
    "name": "Annasandrapalya",
    "id": "21649"
  },
  {
    "lat": 12.96039,
    "lon": 77.66622,
    "name": "Annasandrapalya Cross",
    "id": "23120"
  },
  {
    "lat": 12.96044,
    "lon": 77.66607,
    "name": "Annasandrapalya Cross",
    "id": "23646"
  },
  {
    "lat": 13.21541,
    "lon": 77.71063,
    "name": "Anneshwara Circle",
    "id": "29543"
  },
  {
    "lat": 13.21536,
    "lon": 77.71062,
    "name": "Anneshwara Circle",
    "id": "35460"
  },
  {
    "lat": 12.95714,
    "lon": 77.81518,
    "name": "Anugondanahalli",
    "id": "29545"
  },
  {
    "lat": 12.9571,
    "lon": 77.81524,
    "name": "Anugondanahalli",
    "id": "35458"
  },
  {
    "lat": 12.95896,
    "lon": 77.81597,
    "name": "Anugondanahalli Cross",
    "id": "21650"
  },
  {
    "lat": 12.95892,
    "lon": 77.81598,
    "name": "Anugondanahalli Cross",
    "id": "21651"
  },
  {
    "lat": 12.90328,
    "lon": 77.60895,
    "name": "Anugraha Badavane (Bilekahalli)",
    "id": "38116"
  },
  {
    "lat": 12.75619,
    "lon": 77.66433,
    "name": "Anugraha Green Villa",
    "id": "40007"
  },
  {
    "lat": 13.21543,
    "lon": 77.85596,
    "name": "Anupahalli",
    "id": "24988"
  },
  {
    "lat": 13.21548,
    "lon": 77.85612,
    "name": "Anupahalli",
    "id": "32486"
  },
  {
    "lat": 12.9827,
    "lon": 77.47874,
    "name": "Anupama Hospital",
    "id": "39921"
  },
  {
    "lat": 12.98269,
    "lon": 77.47882,
    "name": "Anupama Hospital",
    "id": "39922"
  },
  {
    "lat": 13.27257,
    "lon": 77.55193,
    "name": "Aparel Park",
    "id": "29548"
  },
  {
    "lat": 13.27266,
    "lon": 77.55205,
    "name": "Aparel Park",
    "id": "35455"
  },
  {
    "lat": 12.94177,
    "lon": 77.55602,
    "name": "Apex Bank",
    "id": "20607"
  },
  {
    "lat": 12.94183,
    "lon": 77.55567,
    "name": "Apex Bank",
    "id": "20608"
  },
  {
    "lat": 12.89662,
    "lon": 77.6,
    "name": "Apollo Hospital",
    "id": "23578"
  },
  {
    "lat": 12.89635,
    "lon": 77.59972,
    "name": "Apollo Hospital",
    "id": "23870"
  },
  {
    "lat": 13.06315,
    "lon": 77.89669,
    "name": "Appasandra",
    "id": "29551"
  },
  {
    "lat": 13.06317,
    "lon": 77.89659,
    "name": "Appasandra",
    "id": "35452"
  },
  {
    "lat": 13.22247,
    "lon": 77.56361,
    "name": "Aradeshanahalli",
    "id": "29553"
  },
  {
    "lat": 13.22244,
    "lon": 77.56364,
    "name": "Aradeshanahalli",
    "id": "35450"
  },
  {
    "lat": 13.21637,
    "lon": 77.55258,
    "name": "Aradeshanahalli Gate",
    "id": "23137"
  },
  {
    "lat": 13.21648,
    "lon": 77.55266,
    "name": "Aradeshanahalli Gate",
    "id": "23140"
  },
  {
    "lat": 13.18477,
    "lon": 77.5442,
    "name": "Arakere",
    "id": "23142"
  },
  {
    "lat": 13.18474,
    "lon": 77.54418,
    "name": "Arakere",
    "id": "23144"
  },
  {
    "lat": 13.20062,
    "lon": 77.5393,
    "name": "Arakere Byrapura",
    "id": "29555"
  },
  {
    "lat": 13.20064,
    "lon": 77.53932,
    "name": "Arakere Byrapura",
    "id": "35448"
  },
  {
    "lat": 12.89024,
    "lon": 77.59811,
    "name": "Arakere Gate",
    "id": "23145"
  },
  {
    "lat": 12.89042,
    "lon": 77.59793,
    "name": "Arakere Gate",
    "id": "23147"
  },
  {
    "lat": 12.89059,
    "lon": 77.5978,
    "name": "Arakere Gate",
    "id": "39361"
  },
  {
    "lat": 12.73314,
    "lon": 77.45381,
    "name": "Aralalusandra",
    "id": "29557"
  },
  {
    "lat": 12.73311,
    "lon": 77.45385,
    "name": "Aralalusandra",
    "id": "35446"
  },
  {
    "lat": 12.74337,
    "lon": 77.46289,
    "name": "Aralalusandra Cross",
    "id": "29558"
  },
  {
    "lat": 12.74341,
    "lon": 77.46301,
    "name": "Aralalusandra Cross",
    "id": "35445"
  },
  {
    "lat": 12.88003,
    "lon": 77.62459,
    "name": "Aralimara (PK Kalyana Mantapa )",
    "id": "23810"
  },
  {
    "lat": 12.87985,
    "lon": 77.62456,
    "name": "Aralimara (PK Kalyana Mantapa )",
    "id": "23814"
  },
  {
    "lat": 12.97858,
    "lon": 77.54902,
    "name": "Aralimara Industrial Area Rajajinagara",
    "id": "21654"
  },
  {
    "lat": 12.97857,
    "lon": 77.54871,
    "name": "Aralimara Industrial Area Rajajinagara",
    "id": "21655"
  },
  {
    "lat": 12.99209,
    "lon": 77.50467,
    "name": "Aralimara Sunkadakatte",
    "id": "20609"
  },
  {
    "lat": 12.95769,
    "lon": 77.48728,
    "name": "Aralimara Ullalu",
    "id": "29560"
  },
  {
    "lat": 12.95768,
    "lon": 77.48731,
    "name": "Aralimara Ullalu",
    "id": "35443"
  },
  {
    "lat": 12.8066,
    "lon": 77.27057,
    "name": "Aralimarada Doddy",
    "id": "23154"
  },
  {
    "lat": 12.9297,
    "lon": 77.36468,
    "name": "Aralimaradapalya",
    "id": "23155"
  },
  {
    "lat": 12.92666,
    "lon": 77.36,
    "name": "Aralimaradapalya Cross",
    "id": "29561"
  },
  {
    "lat": 12.92659,
    "lon": 77.35999,
    "name": "Aralimaradapalya Cross",
    "id": "35442"
  },
  {
    "lat": 13.2737,
    "lon": 77.50925,
    "name": "Aralumallige",
    "id": "29562"
  },
  {
    "lat": 13.27365,
    "lon": 77.50931,
    "name": "Aralumallige",
    "id": "35441"
  },
  {
    "lat": 13.26702,
    "lon": 77.51161,
    "name": "Aralumallige Cross",
    "id": "29563"
  },
  {
    "lat": 12.96478,
    "lon": 77.88863,
    "name": "Arasanahalli",
    "id": "23159"
  },
  {
    "lat": 13.20152,
    "lon": 77.79732,
    "name": "Arasanahalli",
    "id": "23160"
  },
  {
    "lat": 13.20148,
    "lon": 77.79737,
    "name": "Arasanahalli",
    "id": "23161"
  },
  {
    "lat": 13.03724,
    "lon": 77.42604,
    "name": "Arathipalya",
    "id": "29565"
  },
  {
    "lat": 13.03724,
    "lon": 77.42597,
    "name": "Arathipalya",
    "id": "35438"
  },
  {
    "lat": 12.81475,
    "lon": 77.67016,
    "name": "Aravinda Limited",
    "id": "23166"
  },
  {
    "lat": 12.81485,
    "lon": 77.67002,
    "name": "Aravinda Limited",
    "id": "23889"
  },
  {
    "lat": 13.1482,
    "lon": 77.41192,
    "name": "Arch Railway Gollahalli",
    "id": "29567"
  },
  {
    "lat": 13.14818,
    "lon": 77.41187,
    "name": "Arch Railway Gollahalli",
    "id": "35436"
  },
  {
    "lat": 12.91878,
    "lon": 77.45255,
    "name": "Archakara Badavane",
    "id": "29568"
  },
  {
    "lat": 12.91876,
    "lon": 77.45237,
    "name": "Archakara Badavane",
    "id": "35435"
  },
  {
    "lat": 13.15396,
    "lon": 77.71761,
    "name": "Are Bannimangala",
    "id": "29569"
  },
  {
    "lat": 13.154,
    "lon": 77.71759,
    "name": "Are Bannimangala",
    "id": "35434"
  },
  {
    "lat": 13.15681,
    "lon": 77.71965,
    "name": "Are bannimangala Cross",
    "id": "39099"
  },
  {
    "lat": 13.03021,
    "lon": 77.62093,
    "name": "Arebic College",
    "id": "21656"
  },
  {
    "lat": 13.03049,
    "lon": 77.62121,
    "name": "Arebic College",
    "id": "21657"
  },
  {
    "lat": 13.14258,
    "lon": 77.28487,
    "name": "Arebommanahalli T Begur",
    "id": "23171"
  },
  {
    "lat": 12.93717,
    "lon": 77.8298,
    "name": "Arehalli",
    "id": "21658"
  },
  {
    "lat": 12.90834,
    "lon": 77.53797,
    "name": "Arehalli",
    "id": "21659"
  },
  {
    "lat": 12.93715,
    "lon": 77.82987,
    "name": "Arehalli",
    "id": "21660"
  },
  {
    "lat": 12.90865,
    "lon": 77.53885,
    "name": "Arehalli",
    "id": "21661"
  },
  {
    "lat": 12.76319,
    "lon": 77.7669,
    "name": "Arehalli",
    "id": "23173"
  },
  {
    "lat": 12.76317,
    "lon": 77.76695,
    "name": "Arehalli",
    "id": "23175"
  },
  {
    "lat": 13.26528,
    "lon": 77.56541,
    "name": "Arehalli",
    "id": "23176"
  },
  {
    "lat": 12.94227,
    "lon": 77.83669,
    "name": "Arehalli Cross",
    "id": "21662"
  },
  {
    "lat": 12.94222,
    "lon": 77.83665,
    "name": "Arehalli Cross",
    "id": "21663"
  },
  {
    "lat": 12.80984,
    "lon": 77.77503,
    "name": "Arenur",
    "id": "29570"
  },
  {
    "lat": 12.80975,
    "lon": 77.7749,
    "name": "Arenur",
    "id": "35433"
  },
  {
    "lat": 13.08026,
    "lon": 77.42417,
    "name": "Arishinakunte",
    "id": "21664"
  },
  {
    "lat": 13.07971,
    "lon": 77.42421,
    "name": "Arishinakunte",
    "id": "29571"
  },
  {
    "lat": 13.20051,
    "lon": 77.77355,
    "name": "Arishinakunte",
    "id": "35679"
  },
  {
    "lat": 13.2008,
    "lon": 77.77368,
    "name": "Arishinakunte",
    "id": "35680"
  },
  {
    "lat": 13.0799,
    "lon": 77.42487,
    "name": "Arishinakunte  Toll",
    "id": "38573"
  },
  {
    "lat": 13.18506,
    "lon": 77.32518,
    "name": "Arivesandra",
    "id": "29572"
  },
  {
    "lat": 13.18504,
    "lon": 77.32512,
    "name": "Arivesandra",
    "id": "35677"
  },
  {
    "lat": 13.15969,
    "lon": 77.41892,
    "name": "Arjun bettahalli",
    "id": "39661"
  },
  {
    "lat": 12.97871,
    "lon": 77.60941,
    "name": "Army Public School Kamaraja Road",
    "id": "36501"
  },
  {
    "lat": 13.07838,
    "lon": 77.35297,
    "name": "Arogya Dhama",
    "id": "35675"
  },
  {
    "lat": 12.8286,
    "lon": 77.51257,
    "name": "Art Of Living Ravishankar Ashram",
    "id": "29576"
  },
  {
    "lat": 12.82858,
    "lon": 77.51277,
    "name": "Art Of Living Ravishankar Ashram",
    "id": "35673"
  },
  {
    "lat": 12.82279,
    "lon": 77.51417,
    "name": "Art of Living (Kanakapura Road)",
    "id": "29575"
  },
  {
    "lat": 12.82267,
    "lon": 77.51403,
    "name": "Art of Living (Kanakapura Road)",
    "id": "35674"
  },
  {
    "lat": 12.82857,
    "lon": 77.51236,
    "name": "Art of Living Sri Ravishankar Ashram",
    "id": "39585"
  },
  {
    "lat": 13.13139,
    "lon": 77.70151,
    "name": "Asha Nandagokula Badavane",
    "id": "39626"
  },
  {
    "lat": 13.13145,
    "lon": 77.70147,
    "name": "Asha Nandagokula Badavane",
    "id": "39627"
  },
  {
    "lat": 12.9426,
    "lon": 77.58508,
    "name": "Ashoka Pillar",
    "id": "21457"
  },
  {
    "lat": 12.94322,
    "lon": 77.58529,
    "name": "Ashoka Pillar",
    "id": "21458"
  },
  {
    "lat": 12.94367,
    "lon": 77.58496,
    "name": "Ashoka Pillar",
    "id": "23759"
  },
  {
    "lat": 13.06547,
    "lon": 77.53305,
    "name": "Ashoka Polytechnic",
    "id": "38758"
  },
  {
    "lat": 13.06554,
    "lon": 77.53305,
    "name": "Ashoka Polytechnic",
    "id": "38759"
  },
  {
    "lat": 12.93703,
    "lon": 77.5625,
    "name": "Ashokanagara",
    "id": "29578"
  },
  {
    "lat": 12.97871,
    "lon": 77.47403,
    "name": "Ashraya Badavane",
    "id": "23193"
  },
  {
    "lat": 13.05289,
    "lon": 77.63144,
    "name": "Ashwath Nagara",
    "id": "21666"
  },
  {
    "lat": 13.05274,
    "lon": 77.63125,
    "name": "Ashwath Nagara",
    "id": "21667"
  },
  {
    "lat": 13.05078,
    "lon": 77.63054,
    "name": "Ashwath Nagara Cross",
    "id": "21668"
  },
  {
    "lat": 13.05075,
    "lon": 77.63067,
    "name": "Ashwath Nagara Cross",
    "id": "21669"
  },
  {
    "lat": 13.0186,
    "lon": 77.81054,
    "name": "Ashwathkatte Kodihalli",
    "id": "29580"
  },
  {
    "lat": 13.01858,
    "lon": 77.81063,
    "name": "Ashwathkatte Kodihalli",
    "id": "35670"
  },
  {
    "lat": 13.02801,
    "lon": 77.60443,
    "name": "Ashwathkatte Manorayanapalya",
    "id": "23196"
  },
  {
    "lat": 13.028,
    "lon": 77.60436,
    "name": "Ashwathkatte Manorayanapalya",
    "id": "23347"
  },
  {
    "lat": 13.02679,
    "lon": 77.57984,
    "name": "Ashwathnagara",
    "id": "20610"
  },
  {
    "lat": 13.02691,
    "lon": 77.57973,
    "name": "Ashwathnagara",
    "id": "23198"
  },
  {
    "lat": 13.23008,
    "lon": 77.27239,
    "name": "Asian Paints Dabaspet",
    "id": "36066"
  },
  {
    "lat": 12.87915,
    "lon": 77.72373,
    "name": "Aspire bee School",
    "id": "36556"
  },
  {
    "lat": 12.87458,
    "lon": 77.28357,
    "name": "Athimagere Gate",
    "id": "23201"
  },
  {
    "lat": 12.77799,
    "lon": 77.76976,
    "name": "Attibele",
    "id": "29585"
  },
  {
    "lat": 12.77805,
    "lon": 77.77034,
    "name": "Attibele Bus Stand",
    "id": "21670"
  },
  {
    "lat": 12.77958,
    "lon": 77.77061,
    "name": "Attibele Bus Stand",
    "id": "21671"
  },
  {
    "lat": 12.77954,
    "lon": 77.77046,
    "name": "Attibele Bus Stand",
    "id": "21672"
  },
  {
    "lat": 12.77844,
    "lon": 77.77129,
    "name": "Attibele Bus Stand",
    "id": "21673"
  },
  {
    "lat": 12.77796,
    "lon": 77.76989,
    "name": "Attibele Bus Stand",
    "id": "31853"
  },
  {
    "lat": 13.16987,
    "lon": 77.79388,
    "name": "Attibele Sulibele",
    "id": "29586"
  },
  {
    "lat": 13.1698,
    "lon": 77.79387,
    "name": "Attibele Sulibele",
    "id": "35665"
  },
  {
    "lat": 12.95789,
    "lon": 77.53385,
    "name": "Attiguppe",
    "id": "20613"
  },
  {
    "lat": 12.95786,
    "lon": 77.53431,
    "name": "Attiguppe",
    "id": "21674"
  },
  {
    "lat": 12.95785,
    "lon": 77.53437,
    "name": "Attiguppe",
    "id": "23208"
  },
  {
    "lat": 12.95809,
    "lon": 77.53395,
    "name": "Attiguppe",
    "id": "35427"
  },
  {
    "lat": 12.67351,
    "lon": 77.52172,
    "name": "Attiguppe Cross",
    "id": "39950"
  },
  {
    "lat": 12.67355,
    "lon": 77.52177,
    "name": "Attiguppe Cross",
    "id": "39951"
  },
  {
    "lat": 12.96245,
    "lon": 77.53377,
    "name": "Attiguppe Metro Station",
    "id": "39679"
  },
  {
    "lat": 13.08812,
    "lon": 77.85348,
    "name": "Attivatta",
    "id": "29587"
  },
  {
    "lat": 13.09743,
    "lon": 77.85521,
    "name": "Attivatta Gate",
    "id": "31854"
  },
  {
    "lat": 13.09724,
    "lon": 77.85527,
    "name": "Attivatta Gate",
    "id": "35663"
  },
  {
    "lat": 13.10653,
    "lon": 77.56578,
    "name": "Atturu",
    "id": "23211"
  },
  {
    "lat": 13.09855,
    "lon": 77.85864,
    "name": "Atturu",
    "id": "23212"
  },
  {
    "lat": 13.09877,
    "lon": 77.85841,
    "name": "Atturu",
    "id": "23213"
  },
  {
    "lat": 13.10649,
    "lon": 77.56577,
    "name": "Atturu",
    "id": "23214"
  },
  {
    "lat": 13.09774,
    "lon": 77.56766,
    "name": "Atturu Layout",
    "id": "21675"
  },
  {
    "lat": 13.09792,
    "lon": 77.56753,
    "name": "Atturu Layout",
    "id": "21676"
  },
  {
    "lat": 13.09789,
    "lon": 77.56703,
    "name": "Atturu Layout",
    "id": "38903"
  },
  {
    "lat": 13.09791,
    "lon": 77.56706,
    "name": "Atturu Layout",
    "id": "38904"
  },
  {
    "lat": 13.10078,
    "lon": 77.56685,
    "name": "Atturu Layout Vegetable Market",
    "id": "29590"
  },
  {
    "lat": 13.10081,
    "lon": 77.56689,
    "name": "Atturu Layout Vegetable Market",
    "id": "35662"
  },
  {
    "lat": 12.96157,
    "lon": 77.61345,
    "name": "Austin Town",
    "id": "21677"
  },
  {
    "lat": 12.96152,
    "lon": 77.61459,
    "name": "Austin Town",
    "id": "23672"
  },
  {
    "lat": 12.9616,
    "lon": 77.61254,
    "name": "Austin Town",
    "id": "29591"
  },
  {
    "lat": 12.90133,
    "lon": 77.58585,
    "name": "Auto Gas/Royal School",
    "id": "28061"
  },
  {
    "lat": 12.74649,
    "lon": 77.7078,
    "name": "Avadadenahalli Gate",
    "id": "23216"
  },
  {
    "lat": 12.74668,
    "lon": 77.70779,
    "name": "Avadadenahalli Gate",
    "id": "23840"
  },
  {
    "lat": 12.87283,
    "lon": 77.56661,
    "name": "Avalahalli",
    "id": "21679"
  },
  {
    "lat": 12.8728,
    "lon": 77.56655,
    "name": "Avalahalli",
    "id": "21682"
  },
  {
    "lat": 13.1353,
    "lon": 77.5691,
    "name": "Avalahalli",
    "id": "23217"
  },
  {
    "lat": 13.1352,
    "lon": 77.56928,
    "name": "Avalahalli",
    "id": "23220"
  },
  {
    "lat": 12.87222,
    "lon": 77.56118,
    "name": "Avalahalli BDA Layout",
    "id": "21684"
  },
  {
    "lat": 12.87386,
    "lon": 77.56153,
    "name": "Avalahalli BDA Layout",
    "id": "29592"
  },
  {
    "lat": 12.87383,
    "lon": 77.56154,
    "name": "Avalahalli BDA Layout",
    "id": "35661"
  },
  {
    "lat": 12.94328,
    "lon": 77.54311,
    "name": "Avalahalli BDA Park Girinagara",
    "id": "21685"
  },
  {
    "lat": 12.94332,
    "lon": 77.54271,
    "name": "Avalahalli BDA Park Girinagara",
    "id": "21686"
  },
  {
    "lat": 12.86957,
    "lon": 77.71163,
    "name": "Avalahalli Electronic City",
    "id": "35660"
  },
  {
    "lat": 13.0355,
    "lon": 77.73575,
    "name": "Avalahalli Hosakote",
    "id": "21680"
  },
  {
    "lat": 13.03605,
    "lon": 77.7358,
    "name": "Avalahalli Hosakote",
    "id": "23219"
  },
  {
    "lat": 13.03591,
    "lon": 77.73531,
    "name": "Avalahalli Hosakote",
    "id": "23221"
  },
  {
    "lat": 12.9434,
    "lon": 77.53675,
    "name": "Avalahalli New BDA Layout",
    "id": "29594"
  },
  {
    "lat": 12.94341,
    "lon": 77.53685,
    "name": "Avalahalli New BDA Layout",
    "id": "35659"
  },
  {
    "lat": 13.00108,
    "lon": 77.33102,
    "name": "Avalakuppe",
    "id": "39401"
  },
  {
    "lat": 13.00115,
    "lon": 77.33101,
    "name": "Avalakuppe",
    "id": "39402"
  },
  {
    "lat": 13.02376,
    "lon": 77.34841,
    "name": "Avalakuppe Cross",
    "id": "29596"
  },
  {
    "lat": 13.02384,
    "lon": 77.34843,
    "name": "Avalakuppe Cross",
    "id": "35657"
  },
  {
    "lat": 12.81999,
    "lon": 77.38085,
    "name": "Avaragere",
    "id": "29598"
  },
  {
    "lat": 12.82,
    "lon": 77.3808,
    "name": "Avaragere",
    "id": "35655"
  },
  {
    "lat": 12.80957,
    "lon": 77.37782,
    "name": "Avaragere Cross",
    "id": "29599"
  },
  {
    "lat": 12.80962,
    "lon": 77.37784,
    "name": "Avaragere Cross",
    "id": "35654"
  },
  {
    "lat": 12.89926,
    "lon": 77.33696,
    "name": "Avarehalli",
    "id": "35653"
  },
  {
    "lat": 12.78211,
    "lon": 77.49263,
    "name": "Avasarala Factory Kanakapura Road",
    "id": "29601"
  },
  {
    "lat": 12.78204,
    "lon": 77.49265,
    "name": "Avasarala Factory Kanakapura Road",
    "id": "35652"
  },
  {
    "lat": 13.29633,
    "lon": 77.72548,
    "name": "Avathi",
    "id": "29602"
  },
  {
    "lat": 13.29627,
    "lon": 77.7256,
    "name": "Avathi",
    "id": "35651"
  },
  {
    "lat": 13.29642,
    "lon": 77.72582,
    "name": "Avathi",
    "id": "37671"
  },
  {
    "lat": 13.29638,
    "lon": 77.72579,
    "name": "Avathi",
    "id": "37672"
  },
  {
    "lat": 13.03508,
    "lon": 77.41617,
    "name": "Averahalli",
    "id": "29603"
  },
  {
    "lat": 13.03503,
    "lon": 77.41612,
    "name": "Averahalli",
    "id": "35650"
  },
  {
    "lat": 13.04392,
    "lon": 77.41493,
    "name": "Averahalli Cross",
    "id": "29606"
  },
  {
    "lat": 13.03343,
    "lon": 77.42184,
    "name": "Averahalli Cross",
    "id": "31855"
  },
  {
    "lat": 13.04391,
    "lon": 77.4149,
    "name": "Averahalli Cross",
    "id": "31856"
  },
  {
    "lat": 13.03337,
    "lon": 77.42186,
    "name": "Averahalli Cross",
    "id": "35649"
  },
  {
    "lat": 12.99045,
    "lon": 77.58862,
    "name": "Avinash Petrol Bunk",
    "id": "23235"
  },
  {
    "lat": 13.00426,
    "lon": 77.70997,
    "name": "Ayyappa Nagara  Sadaramangala",
    "id": "23238"
  },
  {
    "lat": 13.00441,
    "lon": 77.71254,
    "name": "Ayyappa Nagara Muneshwara Temple Sadaramangala",
    "id": "35070"
  },
  {
    "lat": 13.0045,
    "lon": 77.71251,
    "name": "Ayyappa Nagara Muneshwara Temple Sadaramangala",
    "id": "35307"
  },
  {
    "lat": 13.00431,
    "lon": 77.71002,
    "name": "Ayyappa Nagara Sadaramangala",
    "id": "24258"
  },
  {
    "lat": 13.07468,
    "lon": 77.517,
    "name": "Ayyappa School Kereguddadahalli",
    "id": "23240"
  },
  {
    "lat": 13.00747,
    "lon": 77.64063,
    "name": "Ayyappa Temple (Subbayyanapalya)",
    "id": "29659"
  },
  {
    "lat": 13.00755,
    "lon": 77.64093,
    "name": "Ayyappa Temple (Subbayyanapalya)",
    "id": "36254"
  },
  {
    "lat": 13.04623,
    "lon": 77.52243,
    "name": "Ayyappa Temple Jalahalli Cross",
    "id": "21688"
  },
  {
    "lat": 13.0461,
    "lon": 77.52231,
    "name": "Ayyappa Temple Jalahalli Cross",
    "id": "21689"
  },
  {
    "lat": 12.92478,
    "lon": 77.61791,
    "name": "Ayyappaswamy Temple Madivala",
    "id": "35646"
  },
  {
    "lat": 13.02711,
    "lon": 77.36691,
    "name": "Aziz Palya",
    "id": "29612"
  },
  {
    "lat": 13.02706,
    "lon": 77.36695,
    "name": "Aziz Palya",
    "id": "35645"
  },
  {
    "lat": 13.01,
    "lon": 77.6576,
    "name": "B Channasandra",
    "id": "23246"
  },
  {
    "lat": 13.01006,
    "lon": 77.6575,
    "name": "B Channasandra",
    "id": "23247"
  },
  {
    "lat": 13.0102,
    "lon": 77.6576,
    "name": "B Channasandra",
    "id": "23248"
  },
  {
    "lat": 13.01128,
    "lon": 77.66242,
    "name": "B Channasandra Bridge(Ramamurthy Nagara Ring Road)",
    "id": "20614"
  },
  {
    "lat": 13.01354,
    "lon": 77.66209,
    "name": "B Channasandra Bridge(Ramamurthy Nagara Ring Road)",
    "id": "21459"
  },
  {
    "lat": 13.01329,
    "lon": 77.66193,
    "name": "B Channasandra Bridge(Ramamurthy Nagara Ring Road)",
    "id": "21692"
  },
  {
    "lat": 13.01311,
    "lon": 77.66257,
    "name": "B Channasandra Bridge(Ramamurthy Nagara Ring Road)",
    "id": "21694"
  },
  {
    "lat": 13.01318,
    "lon": 77.66272,
    "name": "B Channasandra Bridge(Ramamurthy Nagara Ring Road)",
    "id": "21695"
  },
  {
    "lat": 13.01124,
    "lon": 77.66226,
    "name": "B Channasandra Bridge(Ramamurthy Nagara Ring Road)",
    "id": "22651"
  },
  {
    "lat": 13.01229,
    "lon": 77.66199,
    "name": "B Channasandra Bridge(Ramamurthy Nagara Ring Road)",
    "id": "37623"
  },
  {
    "lat": 12.7425,
    "lon": 77.44816,
    "name": "B Hosur Circle",
    "id": "29613"
  },
  {
    "lat": 12.74247,
    "lon": 77.4482,
    "name": "B Hosur Circle",
    "id": "35644"
  },
  {
    "lat": 12.74258,
    "lon": 77.45109,
    "name": "B Hosur Water Tank",
    "id": "29614"
  },
  {
    "lat": 12.99063,
    "lon": 77.40285,
    "name": "B K Nagara Cross",
    "id": "39628"
  },
  {
    "lat": 12.99067,
    "lon": 77.4029,
    "name": "B K Nagara Cross",
    "id": "39629"
  },
  {
    "lat": 13.16635,
    "lon": 77.73759,
    "name": "B Marenahalli",
    "id": "29615"
  },
  {
    "lat": 13.16626,
    "lon": 77.73752,
    "name": "B Marenahalli",
    "id": "35642"
  },
  {
    "lat": 13.17023,
    "lon": 77.73952,
    "name": "B Marenahalli",
    "id": "37948"
  },
  {
    "lat": 13.17016,
    "lon": 77.73924,
    "name": "B Marenahalli",
    "id": "39206"
  },
  {
    "lat": 12.94436,
    "lon": 77.65279,
    "name": "B Nagasandra",
    "id": "29616"
  },
  {
    "lat": 12.94429,
    "lon": 77.65284,
    "name": "B Nagasandra",
    "id": "35641"
  },
  {
    "lat": 13.00042,
    "lon": 77.68444,
    "name": "B Narayanapura",
    "id": "21696"
  },
  {
    "lat": 13.0002,
    "lon": 77.68443,
    "name": "B Narayanapura",
    "id": "21697"
  },
  {
    "lat": 12.99583,
    "lon": 77.68417,
    "name": "B Narayanapura Ring Road",
    "id": "20615"
  },
  {
    "lat": 12.99589,
    "lon": 77.68387,
    "name": "B Narayanapura Ring Road",
    "id": "20616"
  },
  {
    "lat": 13.1444,
    "lon": 77.65941,
    "name": "B Palya Razakapalya",
    "id": "29617"
  },
  {
    "lat": 13.14436,
    "lon": 77.6594,
    "name": "B Palya Razakapalya",
    "id": "35640"
  },
  {
    "lat": 12.95128,
    "lon": 77.52978,
    "name": "BCC Layout",
    "id": "31927"
  },
  {
    "lat": 12.95473,
    "lon": 77.53486,
    "name": "BCC Layout Cross",
    "id": "29805"
  },
  {
    "lat": 12.95425,
    "lon": 77.53557,
    "name": "BCC Layout Cross",
    "id": "40440"
  },
  {
    "lat": 12.87838,
    "lon": 77.54934,
    "name": "BCMC Layout Raghuvanahalli",
    "id": "29807"
  },
  {
    "lat": 12.87833,
    "lon": 77.54947,
    "name": "BCMC Layout Raghuvanahalli",
    "id": "31928"
  },
  {
    "lat": 12.9247,
    "lon": 77.56428,
    "name": "BDA Complex Banashankari 2nd Stage",
    "id": "23373"
  },
  {
    "lat": 12.92448,
    "lon": 77.56464,
    "name": "BDA Complex Banashankari 2nd Stage",
    "id": "24341"
  },
  {
    "lat": 12.97211,
    "lon": 77.51293,
    "name": "BDA Complex Cross Nagarabhavi",
    "id": "29809"
  },
  {
    "lat": 12.97199,
    "lon": 77.51278,
    "name": "BDA Complex Cross Nagarabhavi",
    "id": "31929"
  },
  {
    "lat": 13.02589,
    "lon": 77.62809,
    "name": "BDA Complex HBR Layout",
    "id": "29811"
  },
  {
    "lat": 13.02577,
    "lon": 77.62812,
    "name": "BDA Complex HBR Layout",
    "id": "31930"
  },
  {
    "lat": 12.91294,
    "lon": 77.63807,
    "name": "BDA Complex HSR Layout",
    "id": "23716"
  },
  {
    "lat": 12.91293,
    "lon": 77.63814,
    "name": "BDA Complex HSR Layout",
    "id": "23925"
  },
  {
    "lat": 12.93074,
    "lon": 77.62237,
    "name": "BDA Complex Koramangala",
    "id": "21730"
  },
  {
    "lat": 12.93076,
    "lon": 77.62212,
    "name": "BDA Complex Koramangala",
    "id": "21731"
  },
  {
    "lat": 12.97983,
    "lon": 77.51054,
    "name": "BDA Complex Nagarabhavi",
    "id": "29813"
  },
  {
    "lat": 12.97958,
    "lon": 77.51064,
    "name": "BDA Complex Nagarabhavi",
    "id": "35397"
  },
  {
    "lat": 12.97938,
    "lon": 77.51073,
    "name": "BDA Complex Nagarabhavi",
    "id": "35404"
  },
  {
    "lat": 12.96948,
    "lon": 77.5148,
    "name": "BDA Park Bande Maramma Temple",
    "id": "31932"
  },
  {
    "lat": 13.0657,
    "lon": 77.64308,
    "name": "BDS Nagara",
    "id": "29820"
  },
  {
    "lat": 13.06583,
    "lon": 77.64305,
    "name": "BDS Nagara",
    "id": "31934"
  },
  {
    "lat": 13.04639,
    "lon": 77.55583,
    "name": "BEL Circle",
    "id": "20636"
  },
  {
    "lat": 13.0452,
    "lon": 77.55669,
    "name": "BEL Circle",
    "id": "20637"
  },
  {
    "lat": 13.04376,
    "lon": 77.55806,
    "name": "BEL Circle",
    "id": "21463"
  },
  {
    "lat": 13.04402,
    "lon": 77.55489,
    "name": "BEL Circle",
    "id": "21464"
  },
  {
    "lat": 13.04588,
    "lon": 77.55654,
    "name": "BEL Circle",
    "id": "21734"
  },
  {
    "lat": 13.04339,
    "lon": 77.55713,
    "name": "BEL Circle",
    "id": "29841"
  },
  {
    "lat": 13.04887,
    "lon": 77.55861,
    "name": "BEL Factory",
    "id": "21735"
  },
  {
    "lat": 13.05016,
    "lon": 77.55749,
    "name": "BEL Hospital",
    "id": "21736"
  },
  {
    "lat": 13.05019,
    "lon": 77.55747,
    "name": "BEL Hospital",
    "id": "21737"
  },
  {
    "lat": 13.08929,
    "lon": 77.42317,
    "name": "BEL Layout Dasanapura",
    "id": "29843"
  },
  {
    "lat": 13.08927,
    "lon": 77.4232,
    "name": "BEL Layout Dasanapura",
    "id": "31946"
  },
  {
    "lat": 13.0518,
    "lon": 77.55189,
    "name": "BEL Market",
    "id": "31947"
  },
  {
    "lat": 13.05192,
    "lon": 77.5519,
    "name": "BEL Market 1",
    "id": "35683"
  },
  {
    "lat": 12.91978,
    "lon": 77.52033,
    "name": "BEML Complex",
    "id": "29870"
  },
  {
    "lat": 12.91969,
    "lon": 77.52034,
    "name": "BEML Complex",
    "id": "31960"
  },
  {
    "lat": 12.97146,
    "lon": 77.65908,
    "name": "BEML Factory",
    "id": "36497"
  },
  {
    "lat": 12.97146,
    "lon": 77.65859,
    "name": "BEML Gate",
    "id": "21743"
  },
  {
    "lat": 12.9713,
    "lon": 77.6588,
    "name": "BEML Gate",
    "id": "24153"
  },
  {
    "lat": 12.90691,
    "lon": 77.52111,
    "name": "BEML Layout 5th Stage",
    "id": "35925"
  },
  {
    "lat": 12.90681,
    "lon": 77.52104,
    "name": "BEML Layout 5th Stage",
    "id": "39073"
  },
  {
    "lat": 12.90685,
    "lon": 77.52137,
    "name": "BEML Layout 5th stage",
    "id": "29871"
  },
  {
    "lat": 12.96083,
    "lon": 77.71641,
    "name": "BEML Layout Gate",
    "id": "20640"
  },
  {
    "lat": 12.96054,
    "lon": 77.7165,
    "name": "BEML Layout Gate",
    "id": "20641"
  },
  {
    "lat": 12.99284,
    "lon": 77.52994,
    "name": "BEML Layout Kamalanagara",
    "id": "24062"
  },
  {
    "lat": 12.91274,
    "lon": 77.50063,
    "name": "BEML Layout Mylasandra 7th Stage",
    "id": "38830"
  },
  {
    "lat": 12.91265,
    "lon": 77.50051,
    "name": "BEML Layout Mylasandra 7th Stage",
    "id": "38831"
  },
  {
    "lat": 13.39551,
    "lon": 77.72662,
    "name": "BGS College Chikkaballapura( SJC Institute)",
    "id": "38000"
  },
  {
    "lat": 13.39584,
    "lon": 77.72679,
    "name": "BGS College Chikkaballapura( SJC Institute)",
    "id": "38001"
  },
  {
    "lat": 12.84759,
    "lon": 77.46868,
    "name": "BGS College Gate Devagere",
    "id": "29953"
  },
  {
    "lat": 12.84762,
    "lon": 77.46871,
    "name": "BGS College Gate Devagere",
    "id": "32007"
  },
  {
    "lat": 12.90313,
    "lon": 77.49819,
    "name": "BGS Health City",
    "id": "29956"
  },
  {
    "lat": 12.90719,
    "lon": 77.4991,
    "name": "BGS Health City Gate Abhiman Studio",
    "id": "21753"
  },
  {
    "lat": 12.9071,
    "lon": 77.49916,
    "name": "BGS Health City Gate Abhiman Studio",
    "id": "21754"
  },
  {
    "lat": 12.84672,
    "lon": 77.46354,
    "name": "BGS International Residential School",
    "id": "32009"
  },
  {
    "lat": 13.14428,
    "lon": 77.45146,
    "name": "BGS PU College Thotagere",
    "id": "20658"
  },
  {
    "lat": 13.14425,
    "lon": 77.45143,
    "name": "BGS PU College Thotagere",
    "id": "29959"
  },
  {
    "lat": 12.77941,
    "lon": 77.39728,
    "name": "BGS School Banandur",
    "id": "29961"
  },
  {
    "lat": 12.77952,
    "lon": 77.39727,
    "name": "BGS School Banandur",
    "id": "32010"
  },
  {
    "lat": 12.94874,
    "lon": 77.53559,
    "name": "BHEL",
    "id": "20661"
  },
  {
    "lat": 12.84492,
    "lon": 77.66026,
    "name": "BHEL",
    "id": "20662"
  },
  {
    "lat": 12.8452,
    "lon": 77.66026,
    "name": "BHEL",
    "id": "20663"
  },
  {
    "lat": 12.94872,
    "lon": 77.53583,
    "name": "BHEL",
    "id": "20664"
  },
  {
    "lat": 12.84506,
    "lon": 77.65993,
    "name": "BHEL",
    "id": "23997"
  },
  {
    "lat": 12.91624,
    "lon": 77.50835,
    "name": "BHEL Layout",
    "id": "32037"
  },
  {
    "lat": 12.91577,
    "lon": 77.51103,
    "name": "BHEL Layout Cross",
    "id": "30018"
  },
  {
    "lat": 12.91617,
    "lon": 77.51305,
    "name": "BHEL Layout Cross",
    "id": "32038"
  },
  {
    "lat": 12.91583,
    "lon": 77.51098,
    "name": "BHEL Layout Cross",
    "id": "32039"
  },
  {
    "lat": 12.92192,
    "lon": 77.5088,
    "name": "BHEL Layout Maramma Temple",
    "id": "32040"
  },
  {
    "lat": 12.91895,
    "lon": 77.50906,
    "name": "BHEL Layout Water Tank",
    "id": "30022"
  },
  {
    "lat": 12.91904,
    "lon": 77.50901,
    "name": "BHEL Layout Water Tank",
    "id": "32041"
  },
  {
    "lat": 13.38634,
    "lon": 77.69787,
    "name": "BHOGA NANDISWARA TEMPLE",
    "id": "38881"
  },
  {
    "lat": 13.06247,
    "lon": 77.46964,
    "name": "BIES Kuduregere",
    "id": "32073"
  },
  {
    "lat": 12.87067,
    "lon": 77.58316,
    "name": "BK Circle",
    "id": "30131"
  },
  {
    "lat": 12.87062,
    "lon": 77.58325,
    "name": "BK Circle",
    "id": "32100"
  },
  {
    "lat": 12.87056,
    "lon": 77.58309,
    "name": "BK Circle",
    "id": "35060"
  },
  {
    "lat": 12.91943,
    "lon": 77.53179,
    "name": "BME-1 NICE Road",
    "id": "30136"
  },
  {
    "lat": 12.91947,
    "lon": 77.53196,
    "name": "BME-1 NICE Road",
    "id": "32101"
  },
  {
    "lat": 12.89331,
    "lon": 77.51354,
    "name": "BME-2 NICE Road",
    "id": "30138"
  },
  {
    "lat": 12.89344,
    "lon": 77.51345,
    "name": "BME-2 NICE Road",
    "id": "32102"
  },
  {
    "lat": 13.01991,
    "lon": 77.44837,
    "name": "BMTC Training Centre",
    "id": "30147"
  },
  {
    "lat": 13.01994,
    "lon": 77.44841,
    "name": "BMTC Training Centre",
    "id": "32105"
  },
  {
    "lat": 12.9627,
    "lon": 77.84542,
    "name": "BN Bachegowda Badavane",
    "id": "30148"
  },
  {
    "lat": 12.96279,
    "lon": 77.84504,
    "name": "BN Bachegowda Badavane Colony",
    "id": "30150"
  },
  {
    "lat": 12.96278,
    "lon": 77.84512,
    "name": "BN Bachegowda Badavane Colony",
    "id": "32106"
  },
  {
    "lat": 12.89299,
    "lon": 77.5864,
    "name": "BOB Colony",
    "id": "38508"
  },
  {
    "lat": 13.0877,
    "lon": 77.37529,
    "name": "BP Indian School Nelamangala",
    "id": "30189"
  },
  {
    "lat": 13.08764,
    "lon": 77.37555,
    "name": "BP Indian School Nelamangala",
    "id": "32126"
  },
  {
    "lat": 12.98525,
    "lon": 77.74828,
    "name": "BPL",
    "id": "20680"
  },
  {
    "lat": 12.98531,
    "lon": 77.74768,
    "name": "BPL",
    "id": "20681"
  },
  {
    "lat": 12.88702,
    "lon": 77.59697,
    "name": "BPL",
    "id": "35109"
  },
  {
    "lat": 12.88691,
    "lon": 77.59676,
    "name": "BPL",
    "id": "35232"
  },
  {
    "lat": 12.98545,
    "lon": 77.74784,
    "name": "BPL",
    "id": "37197"
  },
  {
    "lat": 12.97911,
    "lon": 77.60273,
    "name": "BRV Talkies Cubbon Road",
    "id": "21785"
  },
  {
    "lat": 12.97941,
    "lon": 77.60223,
    "name": "BRV Talkies Cubbon Road",
    "id": "30209"
  },
  {
    "lat": 13.12915,
    "lon": 77.60494,
    "name": "BSF Yelahanka",
    "id": "30211"
  },
  {
    "lat": 13.12912,
    "lon": 77.60492,
    "name": "BSF Yelahanka",
    "id": "32135"
  },
  {
    "lat": 12.81185,
    "lon": 77.69485,
    "name": "BTL College",
    "id": "21786"
  },
  {
    "lat": 12.8117,
    "lon": 77.69472,
    "name": "BTL College",
    "id": "21787"
  },
  {
    "lat": 12.8868,
    "lon": 77.61507,
    "name": "BTM 4th Stage Circle",
    "id": "39774"
  },
  {
    "lat": 12.88669,
    "lon": 77.61506,
    "name": "BTM 4th Stage Circle",
    "id": "39775"
  },
  {
    "lat": 12.91393,
    "lon": 77.61007,
    "name": "BTM Layout 12th Main 7th Cross",
    "id": "22869"
  },
  {
    "lat": 12.914,
    "lon": 77.61002,
    "name": "BTM Layout 12th Main 7th Cross",
    "id": "22873"
  },
  {
    "lat": 12.91644,
    "lon": 77.60928,
    "name": "BTM Layout 16th Main",
    "id": "20571"
  },
  {
    "lat": 12.91669,
    "lon": 77.60912,
    "name": "BTM Layout 16th Main",
    "id": "20572"
  },
  {
    "lat": 12.91627,
    "lon": 77.61014,
    "name": "BTM Layout 16th Main",
    "id": "31345"
  },
  {
    "lat": 12.91971,
    "lon": 77.61036,
    "name": "BTM Layout 16th Main Hopcoms",
    "id": "22881"
  },
  {
    "lat": 12.91953,
    "lon": 77.61028,
    "name": "BTM Layout 16th Main Hopcoms",
    "id": "22884"
  },
  {
    "lat": 12.88683,
    "lon": 77.61115,
    "name": "BTM Layout 4th Phase (ELC RTO Office)",
    "id": "39479"
  },
  {
    "lat": 12.88678,
    "lon": 77.6104,
    "name": "BTM Layout 4th Phase (ELC RTO Office)",
    "id": "39766"
  },
  {
    "lat": 12.88672,
    "lon": 77.61055,
    "name": "BTM Layout 4th Phase (ELC RTO Office)",
    "id": "39767"
  },
  {
    "lat": 12.88337,
    "lon": 77.61516,
    "name": "BTM Layout 4th Stage Stadium",
    "id": "39701"
  },
  {
    "lat": 12.91654,
    "lon": 77.60711,
    "name": "BTM Layout Water Tank",
    "id": "20688"
  },
  {
    "lat": 12.91673,
    "lon": 77.60713,
    "name": "BTM Layout Water Tank",
    "id": "20689"
  },
  {
    "lat": 12.89033,
    "lon": 77.64645,
    "name": "BTR Garden",
    "id": "23327"
  },
  {
    "lat": 12.89028,
    "lon": 77.64662,
    "name": "BTR Garden",
    "id": "23329"
  },
  {
    "lat": 12.97707,
    "lon": 77.48056,
    "name": "BTS Layout Basaveshwaranagara",
    "id": "23989"
  },
  {
    "lat": 12.97704,
    "lon": 77.4804,
    "name": "BTS Layout Basaveshwaranagara",
    "id": "24291"
  },
  {
    "lat": 12.95005,
    "lon": 77.50086,
    "name": "BUC ADM Block",
    "id": "20646"
  },
  {
    "lat": 12.95007,
    "lon": 77.50069,
    "name": "BUC ADM Block",
    "id": "35428"
  },
  {
    "lat": 12.94184,
    "lon": 77.50601,
    "name": "BUC Ladies Hostel",
    "id": "20650"
  },
  {
    "lat": 12.94195,
    "lon": 77.50599,
    "name": "BUC Ladies Hostel",
    "id": "20651"
  },
  {
    "lat": 12.94439,
    "lon": 77.50435,
    "name": "BUC Library",
    "id": "20652"
  },
  {
    "lat": 12.9443,
    "lon": 77.50421,
    "name": "BUC Library",
    "id": "24363"
  },
  {
    "lat": 12.95203,
    "lon": 77.49917,
    "name": "BUC Quarters",
    "id": "20655"
  },
  {
    "lat": 12.94013,
    "lon": 77.52412,
    "name": "BWSSB Quarters Nayandahalli",
    "id": "20690"
  },
  {
    "lat": 12.93987,
    "lon": 77.5236,
    "name": "BWSSB Quarters Nayandahalli",
    "id": "20691"
  },
  {
    "lat": 12.66841,
    "lon": 77.45685,
    "name": "BWSSB Quaters Harohalli",
    "id": "39366"
  },
  {
    "lat": 12.66836,
    "lon": 77.457,
    "name": "BWSSB Quaters Harohalli",
    "id": "39367"
  },
  {
    "lat": 12.96999,
    "lon": 77.39935,
    "name": "BWSSB Tavarekere",
    "id": "30241"
  },
  {
    "lat": 12.97007,
    "lon": 77.39937,
    "name": "BWSSB Tavarekere",
    "id": "32150"
  },
  {
    "lat": 12.90277,
    "lon": 77.46235,
    "name": "Babasabarapalya Railway Bridge",
    "id": "27826"
  },
  {
    "lat": 12.90275,
    "lon": 77.46229,
    "name": "Babasabarapalya Railway Bridge",
    "id": "31403"
  },
  {
    "lat": 12.90132,
    "lon": 77.46264,
    "name": "Babasahebarapalya",
    "id": "29619"
  },
  {
    "lat": 13.0226,
    "lon": 77.64702,
    "name": "Babusabpalya",
    "id": "20617"
  },
  {
    "lat": 13.02274,
    "lon": 77.64721,
    "name": "Babusabpalya",
    "id": "20618"
  },
  {
    "lat": 13.02285,
    "lon": 77.64747,
    "name": "Babusabpalya",
    "id": "37934"
  },
  {
    "lat": 13.21219,
    "lon": 77.6732,
    "name": "Bachahalli Gate",
    "id": "29620"
  },
  {
    "lat": 13.21205,
    "lon": 77.67332,
    "name": "Bachahalli Gate",
    "id": "35638"
  },
  {
    "lat": 13.25289,
    "lon": 77.59419,
    "name": "Bachahalli Government School",
    "id": "38757"
  },
  {
    "lat": 12.95495,
    "lon": 77.30407,
    "name": "Bachenahatti",
    "id": "29622"
  },
  {
    "lat": 12.95476,
    "lon": 77.30405,
    "name": "Bachenahatti",
    "id": "35636"
  },
  {
    "lat": 12.8181,
    "lon": 77.48975,
    "name": "Badekatte",
    "id": "29623"
  },
  {
    "lat": 12.81806,
    "lon": 77.48975,
    "name": "Badekatte",
    "id": "35635"
  },
  {
    "lat": 12.70789,
    "lon": 77.45403,
    "name": "Badesab Doddi RV PU College",
    "id": "39699"
  },
  {
    "lat": 12.87177,
    "lon": 77.42746,
    "name": "Badrapura",
    "id": "23263"
  },
  {
    "lat": 13.05665,
    "lon": 77.50735,
    "name": "Bagalagunte",
    "id": "20619"
  },
  {
    "lat": 13.05657,
    "lon": 77.50728,
    "name": "Bagalagunte",
    "id": "20620"
  },
  {
    "lat": 13.13456,
    "lon": 77.66816,
    "name": "Bagalur",
    "id": "21698"
  },
  {
    "lat": 13.13452,
    "lon": 77.66809,
    "name": "Bagalur",
    "id": "21699"
  },
  {
    "lat": 13.13461,
    "lon": 77.66794,
    "name": "Bagalur",
    "id": "23267"
  },
  {
    "lat": 13.14146,
    "lon": 77.67118,
    "name": "Bagalur Colony",
    "id": "29624"
  },
  {
    "lat": 13.14146,
    "lon": 77.6713,
    "name": "Bagalur Colony",
    "id": "35634"
  },
  {
    "lat": 13.12198,
    "lon": 77.61061,
    "name": "Bagalur Cross",
    "id": "29626"
  },
  {
    "lat": 13.12182,
    "lon": 77.61128,
    "name": "Bagalur Cross",
    "id": "31858"
  },
  {
    "lat": 13.12211,
    "lon": 77.61116,
    "name": "Bagalur Cross",
    "id": "35633"
  },
  {
    "lat": 13.12174,
    "lon": 77.61129,
    "name": "Bagalur Cross",
    "id": "38375"
  },
  {
    "lat": 13.13187,
    "lon": 77.66215,
    "name": "Bagalur Sante/ CMR University Cross",
    "id": "39919"
  },
  {
    "lat": 13.13211,
    "lon": 77.66222,
    "name": "Bagalur Sante/ CMR University Cross",
    "id": "39920"
  },
  {
    "lat": 13.13351,
    "lon": 77.66675,
    "name": "Bagalur Santhe Circle",
    "id": "31859"
  },
  {
    "lat": 13.1334,
    "lon": 77.66686,
    "name": "Bagalur Santhe‌ Circle",
    "id": "21700"
  },
  {
    "lat": 13.12977,
    "lon": 77.6667,
    "name": "Bagluru Old police Station",
    "id": "38653"
  },
  {
    "lat": 13.12952,
    "lon": 77.66661,
    "name": "Bagluru Old police Station",
    "id": "38654"
  },
  {
    "lat": 12.98076,
    "lon": 77.65642,
    "name": "Bagmane Tech Park",
    "id": "21701"
  },
  {
    "lat": 12.98065,
    "lon": 77.65654,
    "name": "Bagmane Tech Park",
    "id": "21702"
  },
  {
    "lat": 12.89645,
    "lon": 77.84275,
    "name": "Baguru",
    "id": "23272"
  },
  {
    "lat": 12.89677,
    "lon": 77.84224,
    "name": "Baguru",
    "id": "23403"
  },
  {
    "lat": 12.89515,
    "lon": 77.84536,
    "name": "Baguru Colony",
    "id": "23273"
  },
  {
    "lat": 12.89528,
    "lon": 77.84535,
    "name": "Baguru Colony",
    "id": "23404"
  },
  {
    "lat": 12.99435,
    "lon": 77.57801,
    "name": "Bakery 1st Main Road",
    "id": "39441"
  },
  {
    "lat": 12.99436,
    "lon": 77.57794,
    "name": "Bakery 1st Main Road",
    "id": "39442"
  },
  {
    "lat": 13.18959,
    "lon": 77.74336,
    "name": "Baladimmanahalli",
    "id": "29631"
  },
  {
    "lat": 13.1898,
    "lon": 77.74341,
    "name": "Baladimmanahalli",
    "id": "35631"
  },
  {
    "lat": 12.78744,
    "lon": 77.73468,
    "name": "Balageranahalli Cross",
    "id": "35629"
  },
  {
    "lat": 12.9396,
    "lon": 77.72902,
    "name": "Balagere",
    "id": "29634"
  },
  {
    "lat": 12.93963,
    "lon": 77.72901,
    "name": "Balagere",
    "id": "35628"
  },
  {
    "lat": 12.90497,
    "lon": 77.64899,
    "name": "Balaji Apartment HSR Layout",
    "id": "29635"
  },
  {
    "lat": 12.90496,
    "lon": 77.64895,
    "name": "Balaji Apartment HSR Layout",
    "id": "35627"
  },
  {
    "lat": 12.93564,
    "lon": 77.44327,
    "name": "Balaji Badavane Sulikere",
    "id": "38389"
  },
  {
    "lat": 12.93568,
    "lon": 77.44324,
    "name": "Balaji Badavane Sulikere",
    "id": "38390"
  },
  {
    "lat": 12.96007,
    "lon": 77.4893,
    "name": "Balaji Layout",
    "id": "29636"
  },
  {
    "lat": 12.96005,
    "lon": 77.48925,
    "name": "Balaji Layout",
    "id": "35626"
  },
  {
    "lat": 12.87772,
    "lon": 77.53984,
    "name": "Balaji Layout 100ft Road",
    "id": "35625"
  },
  {
    "lat": 13.01405,
    "lon": 77.49106,
    "name": "Balaji Nagara Cross",
    "id": "40403"
  },
  {
    "lat": 13.01418,
    "lon": 77.49109,
    "name": "Balaji Nagara Cross",
    "id": "40404"
  },
  {
    "lat": 12.96057,
    "lon": 77.23686,
    "name": "Balaji Theatre Magadi",
    "id": "29638"
  },
  {
    "lat": 12.96696,
    "lon": 77.51453,
    "name": "Balavikas International School",
    "id": "23283"
  },
  {
    "lat": 12.97008,
    "lon": 77.4914,
    "name": "Balavikas School Gidadakonenahalli",
    "id": "23284"
  },
  {
    "lat": 12.9279,
    "lon": 77.21035,
    "name": "Balekatte",
    "id": "29639"
  },
  {
    "lat": 12.92788,
    "lon": 77.2103,
    "name": "Balekatte",
    "id": "35623"
  },
  {
    "lat": 12.89571,
    "lon": 77.19355,
    "name": "Balenahalli",
    "id": "23289"
  },
  {
    "lat": 12.89568,
    "lon": 77.19349,
    "name": "Balenahalli",
    "id": "23290"
  },
  {
    "lat": 13.1992,
    "lon": 77.77895,
    "name": "Balepura",
    "id": "29641"
  },
  {
    "lat": 13.19918,
    "lon": 77.77898,
    "name": "Balepura",
    "id": "35621"
  },
  {
    "lat": 13.19791,
    "lon": 77.77734,
    "name": "Balepura Gate",
    "id": "21703"
  },
  {
    "lat": 13.19786,
    "lon": 77.77725,
    "name": "Balepura Gate",
    "id": "29643"
  },
  {
    "lat": 13.19764,
    "lon": 77.77686,
    "name": "Balepura Gate",
    "id": "31860"
  },
  {
    "lat": 13.19787,
    "lon": 77.77729,
    "name": "Balepura Gate",
    "id": "38992"
  },
  {
    "lat": 13.0186,
    "lon": 77.39394,
    "name": "Baleveeranahalli",
    "id": "29644"
  },
  {
    "lat": 13.01854,
    "lon": 77.39391,
    "name": "Baleveeranahalli",
    "id": "35620"
  },
  {
    "lat": 12.75424,
    "lon": 77.78728,
    "name": "Balluru",
    "id": "35619"
  },
  {
    "lat": 12.74978,
    "lon": 77.77932,
    "name": "Balluru Cross",
    "id": "29646"
  },
  {
    "lat": 12.74971,
    "lon": 77.77934,
    "name": "Balluru Cross",
    "id": "35618"
  },
  {
    "lat": 13.2624,
    "lon": 77.8082,
    "name": "Baluvanahalli Cross",
    "id": "29648"
  },
  {
    "lat": 13.26239,
    "lon": 77.80826,
    "name": "Baluvanahalli Cross",
    "id": "39386"
  },
  {
    "lat": 12.99191,
    "lon": 77.60342,
    "name": "Bamboo Bazar",
    "id": "21704"
  },
  {
    "lat": 12.99204,
    "lon": 77.60397,
    "name": "Bamboo Bazar",
    "id": "21706"
  },
  {
    "lat": 13.21376,
    "lon": 77.91228,
    "name": "Banahalli",
    "id": "29651"
  },
  {
    "lat": 13.21369,
    "lon": 77.9123,
    "name": "Banahalli",
    "id": "35612"
  },
  {
    "lat": 12.77536,
    "lon": 77.39841,
    "name": "Banandur Circle",
    "id": "29656"
  },
  {
    "lat": 12.77538,
    "lon": 77.39844,
    "name": "Banandur Circle",
    "id": "31861"
  },
  {
    "lat": 12.77677,
    "lon": 77.3979,
    "name": "Bananduru",
    "id": "29654"
  },
  {
    "lat": 12.77677,
    "lon": 77.39795,
    "name": "Bananduru",
    "id": "35609"
  },
  {
    "lat": 12.95716,
    "lon": 77.86284,
    "name": "Banarahalli",
    "id": "29657"
  },
  {
    "lat": 13.01452,
    "lon": 77.65234,
    "name": "Banasawadi",
    "id": "22673"
  },
  {
    "lat": 13.01441,
    "lon": 77.65102,
    "name": "Banasawadi",
    "id": "36255"
  },
  {
    "lat": 13.01513,
    "lon": 77.64963,
    "name": "Banasawadi 100 Feet Road",
    "id": "37807"
  },
  {
    "lat": 13.01508,
    "lon": 77.64969,
    "name": "Banasawadi 100 Feet Road",
    "id": "37808"
  },
  {
    "lat": 13.01538,
    "lon": 77.6429,
    "name": "Banasawadi 80ft Road",
    "id": "29419"
  },
  {
    "lat": 13.01511,
    "lon": 77.64267,
    "name": "Banasawadi 80ft Road",
    "id": "35575"
  },
  {
    "lat": 12.91631,
    "lon": 77.57373,
    "name": "Banashankari",
    "id": "21711"
  },
  {
    "lat": 12.94211,
    "lon": 77.55079,
    "name": "Banashankari 1st Stage Muneshwara Block KEB",
    "id": "21709"
  },
  {
    "lat": 12.94213,
    "lon": 77.55061,
    "name": "Banashankari 1st Stage Muneshwara Block KEB",
    "id": "21710"
  },
  {
    "lat": 12.92763,
    "lon": 77.5514,
    "name": "Banashankari 3rd Stage 3rd Phase",
    "id": "31865"
  },
  {
    "lat": 12.92761,
    "lon": 77.55125,
    "name": "Banashankari 3rd Stage 3rd Phase",
    "id": "31866"
  },
  {
    "lat": 12.9022,
    "lon": 77.52809,
    "name": "Banashankari 5th Stage",
    "id": "29670"
  },
  {
    "lat": 12.87945,
    "lon": 77.5075,
    "name": "Banashankari 6th Phase 5th Block",
    "id": "39828"
  },
  {
    "lat": 12.8793,
    "lon": 77.50748,
    "name": "Banashankari 6th Phase 5th Block",
    "id": "39829"
  },
  {
    "lat": 12.91779,
    "lon": 77.57272,
    "name": "Banashankari Bus Station",
    "id": "20623"
  },
  {
    "lat": 12.91736,
    "lon": 77.5727,
    "name": "Banashankari Bus Station",
    "id": "20624"
  },
  {
    "lat": 12.92097,
    "lon": 77.57407,
    "name": "Banashankari Hunasemara",
    "id": "21712"
  },
  {
    "lat": 12.92084,
    "lon": 77.57414,
    "name": "Banashankari Hunasemara",
    "id": "21713"
  },
  {
    "lat": 12.91966,
    "lon": 77.57413,
    "name": "Banashankari Hunasemara",
    "id": "22062"
  },
  {
    "lat": 12.96272,
    "lon": 77.44299,
    "name": "Banashankari Layout",
    "id": "39904"
  },
  {
    "lat": 12.9628,
    "lon": 77.44303,
    "name": "Banashankari Layout",
    "id": "39905"
  },
  {
    "lat": 12.92629,
    "lon": 77.56991,
    "name": "Banashankari Post Office",
    "id": "29673"
  },
  {
    "lat": 12.92623,
    "lon": 77.56995,
    "name": "Banashankari Post Office",
    "id": "31869"
  },
  {
    "lat": 12.91564,
    "lon": 77.5735,
    "name": "Banashankari Temple",
    "id": "39586"
  },
  {
    "lat": 13.01131,
    "lon": 77.64604,
    "name": "Banaswadi Fire Station",
    "id": "31862"
  },
  {
    "lat": 13.11759,
    "lon": 77.25546,
    "name": "Banawadi",
    "id": "29675"
  },
  {
    "lat": 13.11756,
    "lon": 77.25544,
    "name": "Banawadi",
    "id": "31870"
  },
  {
    "lat": 13.18654,
    "lon": 77.44337,
    "name": "Bandaiahanapalya",
    "id": "20625"
  },
  {
    "lat": 13.18652,
    "lon": 77.44332,
    "name": "Bandaiahanapalya",
    "id": "29676"
  },
  {
    "lat": 12.76981,
    "lon": 77.72655,
    "name": "Bandapura",
    "id": "29678"
  },
  {
    "lat": 12.76982,
    "lon": 77.72653,
    "name": "Bandapura",
    "id": "31871"
  },
  {
    "lat": 13.04174,
    "lon": 77.74453,
    "name": "Bandapura Gate",
    "id": "21714"
  },
  {
    "lat": 13.04228,
    "lon": 77.74459,
    "name": "Bandapura Gate",
    "id": "21715"
  },
  {
    "lat": 13.07664,
    "lon": 77.68072,
    "name": "Bande Bommasandra",
    "id": "29680"
  },
  {
    "lat": 13.07672,
    "lon": 77.6809,
    "name": "Bande Bommasandra",
    "id": "31872"
  },
  {
    "lat": 13.08119,
    "lon": 77.6824,
    "name": "Bande Bommasandra Cross",
    "id": "29682"
  },
  {
    "lat": 13.08123,
    "lon": 77.68241,
    "name": "Bande Bommasandra Cross",
    "id": "31873"
  },
  {
    "lat": 12.9366,
    "lon": 77.36241,
    "name": "Bande Inorpalya",
    "id": "29684"
  },
  {
    "lat": 12.93666,
    "lon": 77.36236,
    "name": "Bande Inorpalya",
    "id": "31874"
  },
  {
    "lat": 13.17216,
    "lon": 77.69082,
    "name": "Bande Kodigehalli",
    "id": "29686"
  },
  {
    "lat": 13.1735,
    "lon": 77.7063,
    "name": "Bande Kodigehalli palya",
    "id": "38638"
  },
  {
    "lat": 13.17346,
    "lon": 77.7061,
    "name": "Bande Kodigehalli palya",
    "id": "38639"
  },
  {
    "lat": 13.17283,
    "lon": 77.69107,
    "name": "Bande Kodigehallipalya Cross",
    "id": "29690"
  },
  {
    "lat": 13.17275,
    "lon": 77.691,
    "name": "Bande Kodigehallipalya Cross",
    "id": "31876"
  },
  {
    "lat": 12.96697,
    "lon": 77.51613,
    "name": "Bande Maramma Bus Station",
    "id": "29691"
  },
  {
    "lat": 12.91277,
    "lon": 77.47358,
    "name": "Bande Mutt Badavane Radiant Enclave",
    "id": "31877"
  },
  {
    "lat": 12.91911,
    "lon": 77.47745,
    "name": "Bande Mutt Gate Kengeri",
    "id": "29696"
  },
  {
    "lat": 12.91899,
    "lon": 77.47749,
    "name": "Bande Mutt Gate Kengeri",
    "id": "31878"
  },
  {
    "lat": 13.10656,
    "lon": 77.25913,
    "name": "Bande Mutt Kunchugal",
    "id": "37784"
  },
  {
    "lat": 13.17202,
    "lon": 77.69075,
    "name": "Bande kodigehalli",
    "id": "29685"
  },
  {
    "lat": 12.99141,
    "lon": 77.56389,
    "name": "Bandi Reddy Circle",
    "id": "29699"
  },
  {
    "lat": 12.99141,
    "lon": 77.56384,
    "name": "Bandi Reddy Circle",
    "id": "31879"
  },
  {
    "lat": 12.84064,
    "lon": 77.41844,
    "name": "Bangalore MysoreToll Plaza",
    "id": "40001"
  },
  {
    "lat": 12.85974,
    "lon": 77.43122,
    "name": "Bangalore MysoreToll Plaza",
    "id": "40002"
  },
  {
    "lat": 12.92477,
    "lon": 77.52634,
    "name": "Bangarappa Nagara",
    "id": "29703"
  },
  {
    "lat": 12.93298,
    "lon": 77.45186,
    "name": "Banglow Sulikere",
    "id": "29705"
  },
  {
    "lat": 12.93304,
    "lon": 77.45183,
    "name": "Banglow Sulikere",
    "id": "31881"
  },
  {
    "lat": 13.03837,
    "lon": 77.66527,
    "name": "Banjara Layout",
    "id": "29707"
  },
  {
    "lat": 13.03833,
    "lon": 77.66531,
    "name": "Banjara Layout",
    "id": "31882"
  },
  {
    "lat": 12.8304,
    "lon": 77.48572,
    "name": "Banjarapalya",
    "id": "29709"
  },
  {
    "lat": 12.83036,
    "lon": 77.48568,
    "name": "Banjarapalya",
    "id": "31883"
  },
  {
    "lat": 13.258,
    "lon": 77.55271,
    "name": "Bank Circle Bashettyhalli",
    "id": "29713"
  },
  {
    "lat": 13.25811,
    "lon": 77.55281,
    "name": "Bank Circle Bashettyhalli",
    "id": "31885"
  },
  {
    "lat": 12.93864,
    "lon": 77.55305,
    "name": "Bank Colony",
    "id": "21716"
  },
  {
    "lat": 12.93861,
    "lon": 77.55326,
    "name": "Bank Colony",
    "id": "21717"
  },
  {
    "lat": 12.81382,
    "lon": 77.58103,
    "name": "Bannerughatta Circle",
    "id": "29716"
  },
  {
    "lat": 12.81386,
    "lon": 77.58123,
    "name": "Bannerughatta Circle",
    "id": "35140"
  },
  {
    "lat": 12.8135,
    "lon": 77.58127,
    "name": "Bannerughatta Circle",
    "id": "35145"
  },
  {
    "lat": 12.81365,
    "lon": 77.58088,
    "name": "Bannerughatta Circle",
    "id": "39211"
  },
  {
    "lat": 12.80092,
    "lon": 77.57748,
    "name": "Bannerughatta National Park",
    "id": "22757"
  },
  {
    "lat": 12.80079,
    "lon": 77.57787,
    "name": "Bannerughatta National Park",
    "id": "23785"
  },
  {
    "lat": 12.75686,
    "lon": 77.43642,
    "name": "Bannigiri",
    "id": "29718"
  },
  {
    "lat": 12.75687,
    "lon": 77.43645,
    "name": "Bannigiri",
    "id": "31887"
  },
  {
    "lat": 12.74727,
    "lon": 77.43325,
    "name": "Bannigiri Cross",
    "id": "29720"
  },
  {
    "lat": 12.74724,
    "lon": 77.43327,
    "name": "Bannigiri Cross",
    "id": "31888"
  },
  {
    "lat": 12.84702,
    "lon": 77.38389,
    "name": "Bannikuppe",
    "id": "29722"
  },
  {
    "lat": 12.847,
    "lon": 77.38386,
    "name": "Bannikuppe",
    "id": "31889"
  },
  {
    "lat": 13.26019,
    "lon": 77.58847,
    "name": "Bannimangala",
    "id": "31890"
  },
  {
    "lat": 12.97203,
    "lon": 77.52938,
    "name": "Bapuji Layout Saraswathi Nagara",
    "id": "29726"
  },
  {
    "lat": 12.95321,
    "lon": 77.54182,
    "name": "Bapujinagara",
    "id": "20626"
  },
  {
    "lat": 13.17629,
    "lon": 77.36669,
    "name": "Baradi",
    "id": "29728"
  },
  {
    "lat": 12.95115,
    "lon": 77.88386,
    "name": "Baraguru",
    "id": "29730"
  },
  {
    "lat": 12.95122,
    "lon": 77.88394,
    "name": "Baraguru",
    "id": "31893"
  },
  {
    "lat": 12.87519,
    "lon": 77.35305,
    "name": "Basammanahalli",
    "id": "29733"
  },
  {
    "lat": 12.87518,
    "lon": 77.3544,
    "name": "Basammanahalli Cross",
    "id": "29735"
  },
  {
    "lat": 12.87516,
    "lon": 77.35436,
    "name": "Basammanahalli Cross",
    "id": "31895"
  },
  {
    "lat": 12.95624,
    "lon": 77.57721,
    "name": "Basappa Circle",
    "id": "21718"
  },
  {
    "lat": 12.95601,
    "lon": 77.57728,
    "name": "Basappa Circle",
    "id": "29736"
  },
  {
    "lat": 12.95636,
    "lon": 77.57717,
    "name": "Basappa Circle",
    "id": "35139"
  },
  {
    "lat": 13.10653,
    "lon": 77.45371,
    "name": "Basappa Layout Mattahalli",
    "id": "29738"
  },
  {
    "lat": 13.10656,
    "lon": 77.45369,
    "name": "Basappa Layout Mattahalli",
    "id": "31896"
  },
  {
    "lat": 12.83133,
    "lon": 77.50046,
    "name": "Basappanapalya",
    "id": "29740"
  },
  {
    "lat": 12.83134,
    "lon": 77.50052,
    "name": "Basappanapalya",
    "id": "31897"
  },
  {
    "lat": 12.84253,
    "lon": 77.50237,
    "name": "Basappanapalya Cross",
    "id": "29742"
  },
  {
    "lat": 12.84255,
    "lon": 77.50238,
    "name": "Basappanapalya Cross",
    "id": "31898"
  },
  {
    "lat": 12.86413,
    "lon": 77.65026,
    "name": "Basapura Electronic City",
    "id": "29744"
  },
  {
    "lat": 12.86411,
    "lon": 77.65033,
    "name": "Basapura Electronic City",
    "id": "31899"
  },
  {
    "lat": 12.88359,
    "lon": 77.45044,
    "name": "Basava Gangotri Samste",
    "id": "29745"
  },
  {
    "lat": 12.96664,
    "lon": 77.68279,
    "name": "Basavanagara",
    "id": "21719"
  },
  {
    "lat": 12.96682,
    "lon": 77.68276,
    "name": "Basavanagara",
    "id": "21720"
  },
  {
    "lat": 12.94168,
    "lon": 77.57396,
    "name": "Basavanagudi Police Station",
    "id": "21721"
  },
  {
    "lat": 12.9416,
    "lon": 77.57376,
    "name": "Basavanagudi Police Station",
    "id": "21722"
  },
  {
    "lat": 13.11028,
    "lon": 77.38815,
    "name": "Basavanahalli",
    "id": "29748"
  },
  {
    "lat": 13.1104,
    "lon": 77.38823,
    "name": "Basavanahalli",
    "id": "31900"
  },
  {
    "lat": 13.10215,
    "lon": 77.38867,
    "name": "Basavanahalli Cross",
    "id": "29751"
  },
  {
    "lat": 13.10231,
    "lon": 77.38869,
    "name": "Basavanahalli Cross",
    "id": "31901"
  },
  {
    "lat": 13.10223,
    "lon": 77.38875,
    "name": "Basavanahalli Cross",
    "id": "31902"
  },
  {
    "lat": 12.93215,
    "lon": 77.40007,
    "name": "Basavanapalya",
    "id": "29753"
  },
  {
    "lat": 12.93214,
    "lon": 77.40003,
    "name": "Basavanapalya",
    "id": "31903"
  },
  {
    "lat": 12.84986,
    "lon": 77.38333,
    "name": "Basavanapura",
    "id": "29760"
  },
  {
    "lat": 13.22559,
    "lon": 77.57657,
    "name": "Basavanapura",
    "id": "31904"
  },
  {
    "lat": 12.84977,
    "lon": 77.3835,
    "name": "Basavanapura",
    "id": "31906"
  },
  {
    "lat": 13.22562,
    "lon": 77.57649,
    "name": "Basavanapura",
    "id": "31909"
  },
  {
    "lat": 12.84561,
    "lon": 77.59433,
    "name": "Basavanapura",
    "id": "39012"
  },
  {
    "lat": 12.84558,
    "lon": 77.59433,
    "name": "Basavanapura",
    "id": "39013"
  },
  {
    "lat": 12.67112,
    "lon": 77.54512,
    "name": "Basavanapura",
    "id": "39948"
  },
  {
    "lat": 12.67118,
    "lon": 77.54515,
    "name": "Basavanapura",
    "id": "39949"
  },
  {
    "lat": 12.84678,
    "lon": 77.5932,
    "name": "Basavanapura Church",
    "id": "29762"
  },
  {
    "lat": 12.84671,
    "lon": 77.59313,
    "name": "Basavanapura Church",
    "id": "31910"
  },
  {
    "lat": 12.84634,
    "lon": 77.58822,
    "name": "Basavanapura Gate",
    "id": "22752"
  },
  {
    "lat": 12.84634,
    "lon": 77.58818,
    "name": "Basavanapura Gate",
    "id": "22760"
  },
  {
    "lat": 12.84391,
    "lon": 77.60611,
    "name": "Basavanna Devasthana CK Palya",
    "id": "29763"
  },
  {
    "lat": 12.84393,
    "lon": 77.60596,
    "name": "Basavanna Devasthana CK Palya",
    "id": "35339"
  },
  {
    "lat": 13.16788,
    "lon": 77.6886,
    "name": "Basavanna Temple Hoovinayakanahalli",
    "id": "29766"
  },
  {
    "lat": 13.1679,
    "lon": 77.6885,
    "name": "Basavanna Temple Hoovinayakanahalli",
    "id": "31911"
  },
  {
    "lat": 12.97027,
    "lon": 77.17677,
    "name": "Basavapatna",
    "id": "29768"
  },
  {
    "lat": 12.9702,
    "lon": 77.17665,
    "name": "Basavapatna",
    "id": "31912"
  },
  {
    "lat": 13.0385,
    "lon": 77.31474,
    "name": "Basavenahalli",
    "id": "29770"
  },
  {
    "lat": 13.03853,
    "lon": 77.3148,
    "name": "Basavenahalli",
    "id": "31913"
  },
  {
    "lat": 13.03602,
    "lon": 77.31422,
    "name": "Basavenahalli Colony",
    "id": "29773"
  },
  {
    "lat": 13.03604,
    "lon": 77.31436,
    "name": "Basavenahalli Colony",
    "id": "31914"
  },
  {
    "lat": 13.03605,
    "lon": 77.31429,
    "name": "Basavenahalli Colony",
    "id": "31915"
  },
  {
    "lat": 12.99448,
    "lon": 77.5527,
    "name": "Basaveshwara College",
    "id": "20629"
  },
  {
    "lat": 12.9941,
    "lon": 77.55278,
    "name": "Basaveshwara College",
    "id": "24194"
  },
  {
    "lat": 12.90829,
    "lon": 77.461,
    "name": "Basaveshwaranagara 2nd Phase",
    "id": "29776"
  },
  {
    "lat": 12.98912,
    "lon": 77.54249,
    "name": "Basaveshwaranagara 3rd Stage",
    "id": "29404"
  },
  {
    "lat": 12.98898,
    "lon": 77.54254,
    "name": "Basaveshwaranagara 3rd Stage",
    "id": "35589"
  },
  {
    "lat": 12.75942,
    "lon": 77.40367,
    "name": "Basaveshwaranagara Banandur",
    "id": "29780"
  },
  {
    "lat": 12.75944,
    "lon": 77.40372,
    "name": "Basaveshwaranagara Banandur",
    "id": "31917"
  },
  {
    "lat": 12.98832,
    "lon": 77.5336,
    "name": "Basaveshwaranagara New Bus Stand",
    "id": "24059"
  },
  {
    "lat": 13.26176,
    "lon": 77.5527,
    "name": "Bashettihalli",
    "id": "29783"
  },
  {
    "lat": 13.26164,
    "lon": 77.5526,
    "name": "Bashettihalli",
    "id": "31918"
  },
  {
    "lat": 13.00659,
    "lon": 77.57886,
    "name": "Bashyam Circle",
    "id": "39296"
  },
  {
    "lat": 13.00656,
    "lon": 77.57892,
    "name": "Bashyam Circle",
    "id": "39297"
  },
  {
    "lat": 12.98391,
    "lon": 77.55412,
    "name": "Bashyam Circle Rajajinagara",
    "id": "20631"
  },
  {
    "lat": 12.98441,
    "lon": 77.5544,
    "name": "Bashyam Circle Rajajinagara",
    "id": "20632"
  },
  {
    "lat": 12.98458,
    "lon": 77.55414,
    "name": "Bashyam Circle Rajajinagara",
    "id": "29788"
  },
  {
    "lat": 12.98441,
    "lon": 77.55398,
    "name": "Bashyam Circle Rajajinagara",
    "id": "31921"
  },
  {
    "lat": 13.00628,
    "lon": 77.57915,
    "name": "Bashyam Circle Sadashivanagara",
    "id": "20633"
  },
  {
    "lat": 13.0062,
    "lon": 77.57905,
    "name": "Bashyam Circle Sadashivanagara",
    "id": "29789"
  },
  {
    "lat": 12.98724,
    "lon": 77.5677,
    "name": "Bashyam Nagara Okalipuram",
    "id": "29791"
  },
  {
    "lat": 12.92348,
    "lon": 77.57008,
    "name": "Bata Show Room banashankari",
    "id": "37682"
  },
  {
    "lat": 12.92351,
    "lon": 77.57006,
    "name": "Bata Show Room banashankari",
    "id": "37683"
  },
  {
    "lat": 13.16998,
    "lon": 77.69009,
    "name": "Bayalahalli Gate(Bande kodigehalli)",
    "id": "29793"
  },
  {
    "lat": 13.17001,
    "lon": 77.68996,
    "name": "Bayalahalli Gate(Bande kodigehalli)",
    "id": "31922"
  },
  {
    "lat": 13.2956,
    "lon": 77.73597,
    "name": "Bayalu Bandikhane",
    "id": "29795"
  },
  {
    "lat": 13.29566,
    "lon": 77.73589,
    "name": "Bayalu Bandikhane",
    "id": "31923"
  },
  {
    "lat": 12.87558,
    "lon": 77.54374,
    "name": "Bayyanapalya",
    "id": "21723"
  },
  {
    "lat": 12.87554,
    "lon": 77.54355,
    "name": "Bayyanapalya",
    "id": "21724"
  },
  {
    "lat": 13.00718,
    "lon": 77.44249,
    "name": "Bayyandahalli",
    "id": "29797"
  },
  {
    "lat": 13.00715,
    "lon": 77.44244,
    "name": "Bayyandahalli",
    "id": "31924"
  },
  {
    "lat": 13.00342,
    "lon": 77.44235,
    "name": "Bayyandahalli Colony",
    "id": "29799"
  },
  {
    "lat": 13.00343,
    "lon": 77.44231,
    "name": "Bayyandahalli Colony",
    "id": "31925"
  },
  {
    "lat": 13.07156,
    "lon": 77.72081,
    "name": "Bayyappanahalli",
    "id": "29801"
  },
  {
    "lat": 13.07163,
    "lon": 77.72083,
    "name": "Bayyappanahalli",
    "id": "31926"
  },
  {
    "lat": 12.98525,
    "lon": 77.64246,
    "name": "Bayyappanahalli Cross",
    "id": "21725"
  },
  {
    "lat": 12.98559,
    "lon": 77.64255,
    "name": "Bayyappanahalli Cross",
    "id": "21726"
  },
  {
    "lat": 12.99157,
    "lon": 77.64327,
    "name": "Bayyappanahalli Gate",
    "id": "21727"
  },
  {
    "lat": 12.9916,
    "lon": 77.6433,
    "name": "Bayyappanahalli Gate",
    "id": "21728"
  },
  {
    "lat": 12.99001,
    "lon": 77.65454,
    "name": "Bayyappanahalli Metro Station",
    "id": "20634"
  },
  {
    "lat": 12.98967,
    "lon": 77.65404,
    "name": "Bayyappanahalli Metro Station",
    "id": "20635"
  },
  {
    "lat": 12.99166,
    "lon": 77.65212,
    "name": "Bayyappanahalli Metro Station  Back Gate",
    "id": "36295"
  },
  {
    "lat": 12.91906,
    "lon": 77.471,
    "name": "Beedi Karmikara Colony",
    "id": "29822"
  },
  {
    "lat": 12.92003,
    "lon": 77.47146,
    "name": "Beedi Karmikara Colony",
    "id": "31935"
  },
  {
    "lat": 12.92236,
    "lon": 77.47481,
    "name": "Beedi Karmikara Colony Gate",
    "id": "29824"
  },
  {
    "lat": 12.92231,
    "lon": 77.47482,
    "name": "Beedi Karmikara Colony Gate",
    "id": "31936"
  },
  {
    "lat": 13.15748,
    "lon": 77.91533,
    "name": "Beerahalli",
    "id": "29826"
  },